{
"type": "FeatureCollection",
"name": "food_flow_locations_bamako",
"crs": { "type": "name", "properties": { "name": "urn:ogc:def:crs:OGC:1.3:CRS84" } },
"features": [
{ "type": "Feature", "properties": { "_uid_": 1, "id": 1, "type": "City outside greater Bamako", "source": "OSM", "label": "Tombouctou", "remarks": null }, "geometry": { "type": "Point", "coordinates": [ -3.0087272, 16.7719091 ] } },
{ "type": "Feature", "properties": { "_uid_": 2, "id": 2, "type": "City outside greater Bamako", "source": "OSM", "label": "Gao", "remarks": null }, "geometry": { "type": "Point", "coordinates": [ -0.0412392, 16.2788129 ] } },
{ "type": "Feature", "properties": { "_uid_": 3, "id": 3, "type": "City outside greater Bamako", "source": "OSM", "label": "Sikasso", "remarks": null }, "geometry": { "type": "Point", "coordinates": [ -5.6777499, 11.3164979 ] } },
{ "type": "Feature", "properties": { "_uid_": 4, "id": 4, "type": "City outside greater Bamako", "source": "OSM", "label": "Kayes", "remarks": null }, "geometry": { "type": "Point", "coordinates": [ -11.4379135, 14.4434063 ] } },
{ "type": "Feature", "properties": { "_uid_": 5, "id": 5, "type": "City outside greater Bamako", "source": "OSM", "label": "Koutiala (in Koutiala, Koutiala)", "remarks": null }, "geometry": { "type": "Point", "coordinates": [ -5.4599797, 12.3871964 ] } },
{ "type": "Feature", "properties": { "_uid_": 6, "id": 6, "type": "Town outside greater Bamako", "source": "OSM", "label": "Markala", "remarks": null }, "geometry": { "type": "Point", "coordinates": [ -6.0686133, 13.6858601 ] } },
{ "type": "Feature", "properties": { "_uid_": 7, "id": 7, "type": "Town outside greater Bamako", "source": "OSM", "label": "Kolokani", "remarks": null }, "geometry": { "type": "Point", "coordinates": [ -8.0312734, 13.5773263 ] } },
{ "type": "Feature", "properties": { "_uid_": 8, "id": 8, "type": "City outside greater Bamako", "source": "OSM", "label": "Koulikoro", "remarks": null }, "geometry": { "type": "Point", "coordinates": [ -7.5561287, 12.8646318 ] } },
{ "type": "Feature", "properties": { "_uid_": 9, "id": 9, "type": "Town outside greater Bamako", "source": "OSM", "label": "Bafoulabé", "remarks": null }, "geometry": { "type": "Point", "coordinates": [ -10.8342049, 13.8088835 ] } },
{ "type": "Feature", "properties": { "_uid_": 10, "id": 10, "type": "Town outside greater Bamako", "source": "OSM", "label": "Mahina", "remarks": null }, "geometry": { "type": "Point", "coordinates": [ -10.8481877, 13.7605592 ] } },
{ "type": "Feature", "properties": { "_uid_": 11, "id": 11, "type": "Town outside greater Bamako", "source": "OSM", "label": "Manantaly", "remarks": "old name was Soukoutali" }, "geometry": { "type": "Point", "coordinates": [ -10.4561307, 13.2052208 ] } },
{ "type": "Feature", "properties": { "_uid_": 12, "id": 12, "type": "Town outside greater Bamako", "source": "OSM", "label": "Kabara", "remarks": null }, "geometry": { "type": "Point", "coordinates": [ -2.985297, 16.7070726 ] } },
{ "type": "Feature", "properties": { "_uid_": 13, "id": 13, "type": "Town outside greater Bamako", "source": "OSM", "label": "Bambara-Maoundé", "remarks": "old name was Bambara-Maoude" }, "geometry": { "type": "Point", "coordinates": [ -2.7861122, 15.8510333 ] } },
{ "type": "Feature", "properties": { "_uid_": 14, "id": 14, "type": "Town outside greater Bamako", "source": "OSM", "label": "Kidira", "remarks": null }, "geometry": { "type": "Point", "coordinates": [ -12.2147659, 14.4580938 ] } },
{ "type": "Feature", "properties": { "_uid_": 15, "id": 15, "type": "Town outside greater Bamako", "source": "OSM", "label": "San", "remarks": null }, "geometry": { "type": "Point", "coordinates": [ -4.8982808, 13.2990868 ] } },
{ "type": "Feature", "properties": { "_uid_": 16, "id": 16, "type": "Town outside greater Bamako", "source": "OSM", "label": "Tominian", "remarks": null }, "geometry": { "type": "Point", "coordinates": [ -4.5902405, 13.2868042 ] } },
{ "type": "Feature", "properties": { "_uid_": 17, "id": 17, "type": "Town outside greater Bamako", "source": "OSM", "label": "Manankoro", "remarks": null }, "geometry": { "type": "Point", "coordinates": [ -7.4459454, 10.4551716 ] } },
{ "type": "Feature", "properties": { "_uid_": 18, "id": 18, "type": "Town outside greater Bamako", "source": "OSM", "label": "sans-nom-11", "remarks": null }, "geometry": { "type": "Point", "coordinates": [ -6.4897751, 10.6529589 ] } },
{ "type": "Feature", "properties": { "_uid_": 19, "id": 19, "type": "Town outside greater Bamako", "source": "OSM", "label": "Kadiana", "remarks": null }, "geometry": { "type": "Point", "coordinates": [ -6.5076279, 10.7491043 ] } },
{ "type": "Feature", "properties": { "_uid_": 20, "id": 20, "type": "Town outside greater Bamako", "source": "OSM", "label": "Misséni", "remarks": null }, "geometry": { "type": "Point", "coordinates": [ -6.0776162, 10.3197594 ] } },
{ "type": "Feature", "properties": { "_uid_": 21, "id": 21, "type": "Town outside greater Bamako", "source": "OSM", "label": "sans-nom-5", "remarks": null }, "geometry": { "type": "Point", "coordinates": [ -6.136496, 10.7462372 ] } },
{ "type": "Feature", "properties": { "_uid_": 22, "id": 22, "type": "Town outside greater Bamako", "source": "OSM", "label": "Badogo", "remarks": null }, "geometry": { "type": "Point", "coordinates": [ -8.2137933, 11.0299495 ] } },
{ "type": "Feature", "properties": { "_uid_": 23, "id": 23, "type": "Town outside greater Bamako", "source": "OSM", "label": "Andéramboukane", "remarks": "old name was Andéranboukan" }, "geometry": { "type": "Point", "coordinates": [ 3.0224703, 15.4220566 ] } },
{ "type": "Feature", "properties": { "_uid_": 24, "id": 24, "type": "Town outside greater Bamako", "source": "OSM", "label": "Hombori", "remarks": null }, "geometry": { "type": "Point", "coordinates": [ -1.6992806, 15.2826817 ] } },
{ "type": "Feature", "properties": { "_uid_": 25, "id": 25, "type": "Town outside greater Bamako", "source": "OSM", "label": "Douentza", "remarks": "old name was Douenza" }, "geometry": { "type": "Point", "coordinates": [ -2.9529649, 15.0068749 ] } },
{ "type": "Feature", "properties": { "_uid_": 26, "id": 26, "type": "Town outside greater Bamako", "source": "OSM", "label": "Tin Zaouatine", "remarks": "old name was Tinzouatine" }, "geometry": { "type": "Point", "coordinates": [ 2.9694782, 19.9541906 ] } },
{ "type": "Feature", "properties": { "_uid_": 27, "id": 27, "type": "Town outside greater Bamako", "source": "OSM", "label": "Siby", "remarks": "old name was Sibi" }, "geometry": { "type": "Point", "coordinates": [ -8.3382892, 12.3742339 ] } },
{ "type": "Feature", "properties": { "_uid_": 28, "id": 28, "type": "Town outside greater Bamako", "source": "OSM", "label": "Kangaba", "remarks": null }, "geometry": { "type": "Point", "coordinates": [ -8.4138589, 11.9415411 ] } },
{ "type": "Feature", "properties": { "_uid_": 29, "id": 29, "type": "Town outside greater Bamako", "source": "OSM", "label": "Sangha", "remarks": "old name was Sangana" }, "geometry": { "type": "Point", "coordinates": [ -3.310228, 14.4680218 ] } },
{ "type": "Feature", "properties": { "_uid_": 30, "id": 30, "type": "Suburb outside greater Bamako", "source": "OSM", "label": "Komoguel", "remarks": "old name was Komogueu" }, "geometry": { "type": "Point", "coordinates": [ -4.1814947, 14.4795122 ] } },
{ "type": "Feature", "properties": { "_uid_": 31, "id": 31, "type": "Town outside greater Bamako", "source": "OSM", "label": "Baramba", "remarks": null }, "geometry": { "type": "Point", "coordinates": [ -5.4530554, 12.585556 ] } },
{ "type": "Feature", "properties": { "_uid_": 32, "id": 32, "type": "Town outside greater Bamako", "source": "OSM", "label": "Siribala Coura", "remarks": "old name was Siribala" }, "geometry": { "type": "Point", "coordinates": [ -6.0618273, 14.0432441 ] } },
{ "type": "Feature", "properties": { "_uid_": 33, "id": 33, "type": "Town outside greater Bamako", "source": "OSM", "label": "Molodo-centre", "remarks": "old name was Molodo" }, "geometry": { "type": "Point", "coordinates": [ -6.02, 14.2375002 ] } },
{ "type": "Feature", "properties": { "_uid_": 34, "id": 34, "type": "Town outside greater Bamako", "source": "OSM", "label": "Diabaly", "remarks": null }, "geometry": { "type": "Point", "coordinates": [ -6.0219579, 14.6855371 ] } },
{ "type": "Feature", "properties": { "_uid_": 35, "id": 35, "type": "Town outside greater Bamako", "source": "OSM", "label": "Konobougou", "remarks": null }, "geometry": { "type": "Point", "coordinates": [ -6.7591381, 12.9191603 ] } },
{ "type": "Feature", "properties": { "_uid_": 36, "id": 36, "type": "Town outside greater Bamako", "source": "OSM", "label": "Marka-Coungo", "remarks": "old name was Marakacoungo" }, "geometry": { "type": "Point", "coordinates": [ -7.2871084, 12.733879 ] } },
{ "type": "Feature", "properties": { "_uid_": 37, "id": 37, "type": "Town outside greater Bamako", "source": "OSM", "label": "Diéma", "remarks": null }, "geometry": { "type": "Point", "coordinates": [ -9.1912651, 14.5417966 ] } },
{ "type": "Feature", "properties": { "_uid_": 38, "id": 38, "type": "Town outside greater Bamako", "source": "OSM", "label": "Touna", "remarks": null }, "geometry": { "type": "Point", "coordinates": [ -5.8357993, 13.1111271 ] } },
{ "type": "Feature", "properties": { "_uid_": 39, "id": 39, "type": "Town outside greater Bamako", "source": "OSM", "label": "Yangasso", "remarks": null }, "geometry": { "type": "Point", "coordinates": [ -5.32266, 13.0711941 ] } },
{ "type": "Feature", "properties": { "_uid_": 40, "id": 40, "type": "Town outside greater Bamako", "source": "OSM", "label": "Adiaganana", "remarks": "old name was Azanga" }, "geometry": { "type": "Point", "coordinates": [ -3.3703778, 13.9350401 ] } },
{ "type": "Feature", "properties": { "_uid_": 41, "id": 41, "type": "Town outside greater Bamako", "source": "OSM", "label": "Adiora", "remarks": null }, "geometry": { "type": "Point", "coordinates": [ -1.2639127, 16.0872252 ] } },
{ "type": "Feature", "properties": { "_uid_": 42, "id": 42, "type": "Town outside greater Bamako", "source": "OSM", "label": "Aglal", "remarks": "old name was Arlal" }, "geometry": { "type": "Point", "coordinates": [ -2.6842058, 16.6176938 ] } },
{ "type": "Feature", "properties": { "_uid_": 43, "id": 43, "type": "Town outside greater Bamako", "source": "OSM", "label": "Agouni", "remarks": null }, "geometry": { "type": "Point", "coordinates": [ -2.9972221, 17.0541669 ] } },
{ "type": "Feature", "properties": { "_uid_": 44, "id": 44, "type": "Town outside greater Bamako", "source": "OSM", "label": "Allahina", "remarks": null }, "geometry": { "type": "Point", "coordinates": [ -8.7400412, 15.2235941 ] } },
{ "type": "Feature", "properties": { "_uid_": 45, "id": 45, "type": "Town outside greater Bamako", "source": "OSM", "label": "Ambidedi Poste", "remarks": null }, "geometry": { "type": "Point", "coordinates": [ -11.7904262, 14.5860656 ] } },
{ "type": "Feature", "properties": { "_uid_": 46, "id": 46, "type": "Town outside greater Bamako", "source": "OSM", "label": "Ambiri-Habe", "remarks": null }, "geometry": { "type": "Point", "coordinates": [ -4.210881, 15.5121732 ] } },
{ "type": "Feature", "properties": { "_uid_": 47, "id": 47, "type": "Town outside greater Bamako", "source": "OSM", "label": "Ansongo", "remarks": null }, "geometry": { "type": "Point", "coordinates": [ 0.5067507, 15.6639257 ] } },
{ "type": "Feature", "properties": { "_uid_": 48, "id": 48, "type": "Town outside greater Bamako", "source": "OSM", "label": "Aourou", "remarks": null }, "geometry": { "type": "Point", "coordinates": [ -11.5872364, 14.9701883 ] } },
{ "type": "Feature", "properties": { "_uid_": 49, "id": 879, "type": "Market in Bamako", "source": "IGM and field research", "label": "Same (Marché)", "remarks": "Location unknown" }, "geometry": null },
{ "type": "Feature", "properties": { "_uid_": 50, "id": 49, "type": "Town outside greater Bamako", "source": "OSM", "label": "Arham", "remarks": "old name was Arahan" }, "geometry": { "type": "Point", "coordinates": [ -3.3744879, 16.3798365 ] } },
{ "type": "Feature", "properties": { "_uid_": 51, "id": 50, "type": "Town outside greater Bamako", "source": "OSM", "label": "Baboye", "remarks": null }, "geometry": { "type": "Point", "coordinates": [ -3.9512626, 14.2595631 ] } },
{ "type": "Feature", "properties": { "_uid_": 52, "id": 51, "type": "Town outside greater Bamako", "source": "OSM", "label": "Bafarara", "remarks": null }, "geometry": { "type": "Point", "coordinates": [ -11.4734128, 15.374555 ] } },
{ "type": "Feature", "properties": { "_uid_": 53, "id": 52, "type": "Town outside greater Bamako", "source": "OSM", "label": "Balamassala", "remarks": null }, "geometry": { "type": "Point", "coordinates": [ -8.7594292, 12.1867213 ] } },
{ "type": "Feature", "properties": { "_uid_": 54, "id": 53, "type": "Town outside greater Bamako", "source": "OSM", "label": "Balandougou", "remarks": null }, "geometry": { "type": "Point", "coordinates": [ -9.552205, 13.3578667 ] } },
{ "type": "Feature", "properties": { "_uid_": 55, "id": 54, "type": "Town outside greater Bamako", "source": "OSM", "label": "Balia", "remarks": "old name was Balea" }, "geometry": { "type": "Point", "coordinates": [ -9.9621105, 12.229174 ] } },
{ "type": "Feature", "properties": { "_uid_": 56, "id": 55, "type": "Town outside greater Bamako", "source": "OSM", "label": "Bamba-Poste", "remarks": null }, "geometry": { "type": "Point", "coordinates": [ -1.401399, 17.0294779 ] } },
{ "type": "Feature", "properties": { "_uid_": 57, "id": 56, "type": "Town outside greater Bamako", "source": "OSM", "label": "Bambala", "remarks": null }, "geometry": { "type": "Point", "coordinates": [ -8.3120853, 11.3970598 ] } },
{ "type": "Feature", "properties": { "_uid_": 58, "id": 57, "type": "Town outside greater Bamako", "source": "OSM", "label": "Banakane", "remarks": "old name was Ondougou" }, "geometry": { "type": "Point", "coordinates": [ -3.2269752, 14.6432349 ] } },
{ "type": "Feature", "properties": { "_uid_": 59, "id": 58, "type": "Town outside greater Bamako", "source": "OSM", "label": "Banamba", "remarks": null }, "geometry": { "type": "Point", "coordinates": [ -7.446532, 13.5485166 ] } },
{ "type": "Feature", "properties": { "_uid_": 60, "id": 59, "type": "Town outside greater Bamako", "source": "OSM", "label": "Banancoro", "remarks": null }, "geometry": { "type": "Point", "coordinates": [ -8.673668, 11.7127896 ] } },
{ "type": "Feature", "properties": { "_uid_": 61, "id": 60, "type": "Town outside greater Bamako", "source": "OSM", "label": "Banco", "remarks": null }, "geometry": { "type": "Point", "coordinates": [ -6.5244935, 12.0991693 ] } },
{ "type": "Feature", "properties": { "_uid_": 62, "id": 61, "type": "Town outside greater Bamako", "source": "OSM", "label": "Bangassi", "remarks": null }, "geometry": { "type": "Point", "coordinates": [ -11.5078595, 14.4929637 ] } },
{ "type": "Feature", "properties": { "_uid_": 63, "id": 62, "type": "Town outside greater Bamako", "source": "OSM", "label": "Banikane", "remarks": null }, "geometry": { "type": "Point", "coordinates": [ -3.5950252, 16.0441734 ] } },
{ "type": "Feature", "properties": { "_uid_": 64, "id": 63, "type": "Town outside greater Bamako", "source": "OSM", "label": "Bankass", "remarks": null }, "geometry": { "type": "Point", "coordinates": [ -3.5231945, 14.0776088 ] } },
{ "type": "Feature", "properties": { "_uid_": 65, "id": 64, "type": "Town outside greater Bamako", "source": "OSM", "label": "Bara", "remarks": null }, "geometry": { "type": "Point", "coordinates": [ 0.3250818, 15.8171581 ] } },
{ "type": "Feature", "properties": { "_uid_": 66, "id": 65, "type": "Town outside greater Bamako", "source": "OSM", "label": "Baramandougou", "remarks": null }, "geometry": { "type": "Point", "coordinates": [ -4.592781, 13.5995157 ] } },
{ "type": "Feature", "properties": { "_uid_": 67, "id": 66, "type": "Town outside greater Bamako", "source": "OSM", "label": "Baye (in Dombia, Kéniéba)", "remarks": null }, "geometry": { "type": "Point", "coordinates": [ -11.0179069, 12.8291801 ] } },
{ "type": "Feature", "properties": { "_uid_": 68, "id": 67, "type": "Town outside greater Bamako", "source": "OSM", "label": "Baye (in Baye, Bankass)", "remarks": "old name was Baï" }, "geometry": { "type": "Point", "coordinates": [ -3.3696639, 13.6257802 ] } },
{ "type": "Feature", "properties": { "_uid_": 69, "id": 68, "type": "Town outside greater Bamako", "source": "OSM", "label": "Beleko Soba", "remarks": null }, "geometry": { "type": "Point", "coordinates": [ -6.4079365, 12.4750555 ] } },
{ "type": "Feature", "properties": { "_uid_": 70, "id": 69, "type": "Town outside greater Bamako", "source": "OSM", "label": "Bendougouba", "remarks": null }, "geometry": { "type": "Point", "coordinates": [ -9.3955555, 13.0569448 ] } },
{ "type": "Feature", "properties": { "_uid_": 71, "id": 70, "type": "Town outside greater Bamako", "source": "OSM", "label": "Bénéma", "remarks": "old name was Benena" }, "geometry": { "type": "Point", "coordinates": [ -4.3662338, 13.1205327 ] } },
{ "type": "Feature", "properties": { "_uid_": 72, "id": 71, "type": "Town outside greater Bamako", "source": "OSM", "label": "Ber", "remarks": null }, "geometry": { "type": "Point", "coordinates": [ -2.5267412, 16.8394668 ] } },
{ "type": "Feature", "properties": { "_uid_": 73, "id": 72, "type": "Town outside greater Bamako", "source": "OSM", "label": "Berdosso", "remarks": "old name was Berdossou" }, "geometry": { "type": "Point", "coordinates": [ -3.0544452, 14.7354183 ] } },
{ "type": "Feature", "properties": { "_uid_": 74, "id": 73, "type": "Town outside greater Bamako", "source": "OSM", "label": "Binko", "remarks": null }, "geometry": { "type": "Point", "coordinates": [ -8.24407, 11.63972 ] } },
{ "type": "Feature", "properties": { "_uid_": 75, "id": 74, "type": "Town outside greater Bamako", "source": "OSM", "label": "Bintagoungou", "remarks": "old name was Bicatongo" }, "geometry": { "type": "Point", "coordinates": [ -3.7310448, 16.7375895 ] } },
{ "type": "Feature", "properties": { "_uid_": 76, "id": 75, "type": "Town outside greater Bamako", "source": "OSM", "label": "Blendio", "remarks": null }, "geometry": { "type": "Point", "coordinates": [ -6.3460467, 11.6086623 ] } },
{ "type": "Feature", "properties": { "_uid_": 77, "id": 76, "type": "Town outside greater Bamako", "source": "OSM", "label": "Bobola-Zangasso", "remarks": null }, "geometry": { "type": "Point", "coordinates": [ -4.9929459, 12.5341631 ] } },
{ "type": "Feature", "properties": { "_uid_": 78, "id": 77, "type": "Town outside greater Bamako", "source": "OSM", "label": "Bolibana", "remarks": null }, "geometry": { "type": "Point", "coordinates": [ -5.9280558, 14.4244442 ] } },
{ "type": "Feature", "properties": { "_uid_": 79, "id": 78, "type": "Town outside greater Bamako", "source": "OSM", "label": "Bondo", "remarks": "old name was Bono" }, "geometry": { "type": "Point", "coordinates": [ -3.0057792, 14.1339637 ] } },
{ "type": "Feature", "properties": { "_uid_": 80, "id": 79, "type": "Town outside greater Bamako", "source": "OSM", "label": "Bongosso", "remarks": null }, "geometry": { "type": "Point", "coordinates": [ -5.189162, 12.6665755 ] } },
{ "type": "Feature", "properties": { "_uid_": 81, "id": 80, "type": "Town outside greater Bamako", "source": "OSM", "label": "Boni", "remarks": "old name was Douna" }, "geometry": { "type": "Point", "coordinates": [ -2.2200359, 15.0724654 ] } },
{ "type": "Feature", "properties": { "_uid_": 82, "id": 81, "type": "Town outside greater Bamako", "source": "OSM", "label": "Borko", "remarks": null }, "geometry": { "type": "Point", "coordinates": [ -3.3546199, 14.9512727 ] } },
{ "type": "Feature", "properties": { "_uid_": 83, "id": 82, "type": "Town outside greater Bamako", "source": "OSM", "label": "Boron", "remarks": null }, "geometry": { "type": "Point", "coordinates": [ -7.5126755, 14.0094106 ] } },
{ "type": "Feature", "properties": { "_uid_": 84, "id": 83, "type": "Town outside greater Bamako", "source": "OSM", "label": "Boudofo", "remarks": null }, "geometry": { "type": "Point", "coordinates": [ -9.5074997, 13.0886106 ] } },
{ "type": "Feature", "properties": { "_uid_": 85, "id": 84, "type": "Town outside greater Bamako", "source": "OSM", "label": "Bougarybaya", "remarks": null }, "geometry": { "type": "Point", "coordinates": [ -9.8463542, 12.8165171 ] } },
{ "type": "Feature", "properties": { "_uid_": 86, "id": 85, "type": "Town outside greater Bamako", "source": "OSM", "label": "Bougoukourala", "remarks": null }, "geometry": { "type": "Point", "coordinates": [ -6.361694, 12.3834656 ] } },
{ "type": "Feature", "properties": { "_uid_": 87, "id": 86, "type": "Town outside greater Bamako", "source": "OSM", "label": "Bougoula (in Fakola, Kolondiéba)", "remarks": null }, "geometry": { "type": "Point", "coordinates": [ -6.9186, 10.7794616 ] } },
{ "type": "Feature", "properties": { "_uid_": 88, "id": 87, "type": "Town outside greater Bamako", "source": "OSM", "label": "Boulal", "remarks": null }, "geometry": { "type": "Point", "coordinates": [ -8.4275429, 15.0800813 ] } },
{ "type": "Feature", "properties": { "_uid_": 89, "id": 88, "type": "Town outside greater Bamako", "source": "OSM", "label": "Boura", "remarks": "old name was Bura" }, "geometry": { "type": "Point", "coordinates": [ -4.5432998, 12.4154707 ] } },
{ "type": "Feature", "properties": { "_uid_": 90, "id": 89, "type": "Town outside greater Bamako", "source": "OSM", "label": "Bourem Sidi Amar", "remarks": "old name was Bourèm" }, "geometry": { "type": "Point", "coordinates": [ -3.3334035, 16.3666623 ] } },
{ "type": "Feature", "properties": { "_uid_": 91, "id": 90, "type": "Town outside greater Bamako", "source": "OSM", "label": "Bourem", "remarks": null }, "geometry": { "type": "Point", "coordinates": [ -0.3468008, 16.9575282 ] } },
{ "type": "Feature", "properties": { "_uid_": 92, "id": 91, "type": "Town outside greater Bamako", "source": "OSM", "label": "Bourem-Inaly", "remarks": "old name was Bourem Inali" }, "geometry": { "type": "Point", "coordinates": [ -2.8515344, 16.6904119 ] } },
{ "type": "Feature", "properties": { "_uid_": 93, "id": 92, "type": "Town outside greater Bamako", "source": "OSM", "label": "Boussin", "remarks": null }, "geometry": { "type": "Point", "coordinates": [ -5.9353141, 13.507065 ] } },
{ "type": "Feature", "properties": { "_uid_": 94, "id": 93, "type": "Town outside greater Bamako", "source": "OSM", "label": "Cinzana Gare", "remarks": null }, "geometry": { "type": "Point", "coordinates": [ -5.9641269, 13.2490401 ] } },
{ "type": "Feature", "properties": { "_uid_": 95, "id": 94, "type": "Town outside greater Bamako", "source": "OSM", "label": "Daban", "remarks": null }, "geometry": { "type": "Point", "coordinates": [ -8.3098376, 13.2206471 ] } },
{ "type": "Feature", "properties": { "_uid_": 96, "id": 95, "type": "Town outside greater Bamako", "source": "OSM", "label": "Dabia", "remarks": "old name was Dabiya" }, "geometry": { "type": "Point", "coordinates": [ -11.1379466, 12.6699671 ] } },
{ "type": "Feature", "properties": { "_uid_": 97, "id": 96, "type": "Town outside greater Bamako", "source": "OSM", "label": "Daféla", "remarks": null }, "geometry": { "type": "Point", "coordinates": [ -9.3986743, 12.9678288 ] } },
{ "type": "Feature", "properties": { "_uid_": 98, "id": 97, "type": "Town outside greater Bamako", "source": "OSM", "label": "Dah", "remarks": null }, "geometry": { "type": "Point", "coordinates": [ -4.9460516, 13.1525243 ] } },
{ "type": "Feature", "properties": { "_uid_": 99, "id": 98, "type": "Town outside greater Bamako", "source": "OSM", "label": "Daka", "remarks": "old name was Ahmdèg" }, "geometry": { "type": "Point", "coordinates": [ -2.6708334, 16.0755558 ] } },
{ "type": "Feature", "properties": { "_uid_": 100, "id": 99, "type": "Town outside greater Bamako", "source": "OSM", "label": "Dallah", "remarks": null }, "geometry": { "type": "Point", "coordinates": [ -2.6402779, 15.105278 ] } },
{ "type": "Feature", "properties": { "_uid_": 101, "id": 100, "type": "Town outside greater Bamako", "source": "OSM", "label": "Damada", "remarks": null }, "geometry": { "type": "Point", "coordinates": [ -3.1787601, 14.7334742 ] } },
{ "type": "Feature", "properties": { "_uid_": 102, "id": 101, "type": "Town outside greater Bamako", "source": "OSM", "label": "Danderesso", "remarks": null }, "geometry": { "type": "Point", "coordinates": [ -5.4825043, 11.4845315 ] } },
{ "type": "Feature", "properties": { "_uid_": 103, "id": 102, "type": "Town outside greater Bamako", "source": "OSM", "label": "Dandoli", "remarks": null }, "geometry": { "type": "Point", "coordinates": [ -3.5444698, 14.3982012 ] } },
{ "type": "Feature", "properties": { "_uid_": 104, "id": 103, "type": "Town outside greater Bamako", "source": "OSM", "label": "Dandougou", "remarks": null }, "geometry": { "type": "Point", "coordinates": [ -6.4977779, 12.560278 ] } },
{ "type": "Feature", "properties": { "_uid_": 105, "id": 104, "type": "Town outside greater Bamako", "source": "OSM", "label": "Dangha", "remarks": "old name was Denha" }, "geometry": { "type": "Point", "coordinates": [ -3.1361951, 16.4650858 ] } },
{ "type": "Feature", "properties": { "_uid_": 106, "id": 105, "type": "Town outside greater Bamako", "source": "OSM", "label": "Debelin", "remarks": null }, "geometry": { "type": "Point", "coordinates": [ -6.9907132, 11.5524061 ] } },
{ "type": "Feature", "properties": { "_uid_": 107, "id": 106, "type": "Town outside greater Bamako", "source": "OSM", "label": "Defina", "remarks": null }, "geometry": { "type": "Point", "coordinates": [ -7.151679, 11.0078736 ] } },
{ "type": "Feature", "properties": { "_uid_": 108, "id": 107, "type": "Town outside greater Bamako", "source": "OSM", "label": "Deh", "remarks": "old name was Dé" }, "geometry": { "type": "Point", "coordinates": [ -3.258102, 14.7789902 ] } },
{ "type": "Feature", "properties": { "_uid_": 109, "id": 108, "type": "Town outside greater Bamako", "source": "OSM", "label": "Dembela", "remarks": null }, "geometry": { "type": "Point", "coordinates": [ -6.3639263, 11.7244835 ] } },
{ "type": "Feature", "properties": { "_uid_": 110, "id": 109, "type": "Town outside greater Bamako", "source": "OSM", "label": "Dia", "remarks": null }, "geometry": { "type": "Point", "coordinates": [ -4.9566736, 14.3525696 ] } },
{ "type": "Feature", "properties": { "_uid_": 111, "id": 110, "type": "Town outside greater Bamako", "source": "OSM", "label": "Diakon", "remarks": null }, "geometry": { "type": "Point", "coordinates": [ -10.2509078, 14.471531 ] } },
{ "type": "Feature", "properties": { "_uid_": 112, "id": 111, "type": "Town outside greater Bamako", "source": "OSM", "label": "Diakourouna Nerissso", "remarks": null }, "geometry": { "type": "Point", "coordinates": [ -5.1413934, 12.8673447 ] } },
{ "type": "Feature", "properties": { "_uid_": 113, "id": 112, "type": "Town outside greater Bamako", "source": "OSM", "label": "Diala-Banlieu", "remarks": null }, "geometry": { "type": "Point", "coordinates": [ -11.4913664, 14.4646813 ] } },
{ "type": "Feature", "properties": { "_uid_": 114, "id": 113, "type": "Town outside greater Bamako", "source": "OSM", "label": "Dialafara", "remarks": null }, "geometry": { "type": "Point", "coordinates": [ -11.3788258, 13.4610451 ] } },
{ "type": "Feature", "properties": { "_uid_": 115, "id": 114, "type": "Town outside greater Bamako", "source": "OSM", "label": "Dialakoro (in Kourouba, Kati)", "remarks": null }, "geometry": { "type": "Point", "coordinates": [ -8.1586973, 11.7121274 ] } },
{ "type": "Feature", "properties": { "_uid_": 116, "id": 115, "type": "Town outside greater Bamako", "source": "OSM", "label": "Dialakoro (in Kignan, Sikasso)", "remarks": null }, "geometry": { "type": "Point", "coordinates": [ -6.1199999, 12.0763893 ] } },
{ "type": "Feature", "properties": { "_uid_": 117, "id": 116, "type": "Town outside greater Bamako", "source": "OSM", "label": "Dialakoroba", "remarks": null }, "geometry": { "type": "Point", "coordinates": [ -7.9260338, 12.2660731 ] } },
{ "type": "Feature", "properties": { "_uid_": 118, "id": 117, "type": "Town outside greater Bamako", "source": "OSM", "label": "Dialan", "remarks": null }, "geometry": { "type": "Point", "coordinates": [ -10.1616903, 14.2053685 ] } },
{ "type": "Feature", "properties": { "_uid_": 119, "id": 118, "type": "Town outside greater Bamako", "source": "OSM", "label": "Diallassagou", "remarks": "old name was Diallassagu" }, "geometry": { "type": "Point", "coordinates": [ -3.626438, 13.7407179 ] } },
{ "type": "Feature", "properties": { "_uid_": 120, "id": 119, "type": "Town outside greater Bamako", "source": "OSM", "label": "Diamabacourou", "remarks": "old name was Diamba-Kourou" }, "geometry": { "type": "Point", "coordinates": [ -3.9752776, 14.8225002 ] } },
{ "type": "Feature", "properties": { "_uid_": 121, "id": 120, "type": "Town outside greater Bamako", "source": "OSM", "label": "Diamarabougou", "remarks": null }, "geometry": { "type": "Point", "coordinates": [ -6.0745668, 13.6718633 ] } },
{ "type": "Feature", "properties": { "_uid_": 122, "id": 121, "type": "Town outside greater Bamako", "source": "OSM", "label": "Diamou", "remarks": null }, "geometry": { "type": "Point", "coordinates": [ -11.2624981, 14.086561 ] } },
{ "type": "Feature", "properties": { "_uid_": 123, "id": 122, "type": "Town outside greater Bamako", "source": "OSM", "label": "Diangassagou", "remarks": "old name was Diémessogou" }, "geometry": { "type": "Point", "coordinates": [ -3.9414123, 13.9963659 ] } },
{ "type": "Feature", "properties": { "_uid_": 124, "id": 123, "type": "Town outside greater Bamako", "source": "OSM", "label": "Diankabou", "remarks": null }, "geometry": { "type": "Point", "coordinates": [ -3.0804706, 14.5860099 ] } },
{ "type": "Feature", "properties": { "_uid_": 125, "id": 124, "type": "Town outside greater Bamako", "source": "OSM", "label": "Diaramana", "remarks": null }, "geometry": { "type": "Point", "coordinates": [ -5.4117031, 12.8447941 ] } },
{ "type": "Feature", "properties": { "_uid_": 126, "id": 125, "type": "Town outside greater Bamako", "source": "OSM", "label": "Diarra (in Trongoumbe, Nioro)", "remarks": null }, "geometry": { "type": "Point", "coordinates": [ -9.3198189, 15.314472 ] } },
{ "type": "Feature", "properties": { "_uid_": 127, "id": 126, "type": "Town outside greater Bamako", "source": "OSM", "label": "Diboli", "remarks": null }, "geometry": { "type": "Point", "coordinates": [ -12.200116, 14.4506368 ] } },
{ "type": "Feature", "properties": { "_uid_": 128, "id": 127, "type": "Town outside greater Bamako", "source": "OSM", "label": "Digani", "remarks": null }, "geometry": { "type": "Point", "coordinates": [ -6.312778, 13.501111 ] } },
{ "type": "Feature", "properties": { "_uid_": 129, "id": 128, "type": "Town outside greater Bamako", "source": "OSM", "label": "Dilly", "remarks": null }, "geometry": { "type": "Point", "coordinates": [ -7.6688508, 14.9994816 ] } },
{ "type": "Feature", "properties": { "_uid_": 130, "id": 129, "type": "Town outside greater Bamako", "source": "OSM", "label": "Dimbal-Habbe", "remarks": "old name was Dimmbal" }, "geometry": { "type": "Point", "coordinates": [ -3.6175018, 14.0281077 ] } },
{ "type": "Feature", "properties": { "_uid_": 131, "id": 130, "type": "Town outside greater Bamako", "source": "OSM", "label": "Dinangourou", "remarks": null }, "geometry": { "type": "Point", "coordinates": [ -2.2448651, 14.45071 ] } },
{ "type": "Feature", "properties": { "_uid_": 132, "id": 131, "type": "Town outside greater Bamako", "source": "OSM", "label": "Dindako", "remarks": null }, "geometry": { "type": "Point", "coordinates": [ -9.5029038, 14.1234419 ] } },
{ "type": "Feature", "properties": { "_uid_": 133, "id": 132, "type": "Town outside greater Bamako", "source": "OSM", "label": "Dioila (in Dioïla, Dioïla)", "remarks": null }, "geometry": { "type": "Point", "coordinates": [ -6.7938103, 12.481265 ] } },
{ "type": "Feature", "properties": { "_uid_": 134, "id": 133, "type": "Town outside greater Bamako", "source": "OSM", "label": "Diokeli", "remarks": null }, "geometry": { "type": "Point", "coordinates": [ -10.55036, 13.3097703 ] } },
{ "type": "Feature", "properties": { "_uid_": 135, "id": 134, "type": "Town outside greater Bamako", "source": "OSM", "label": "Diona", "remarks": "old name was Tiéna" }, "geometry": { "type": "Point", "coordinates": [ -3.234736, 15.3265361 ] } },
{ "type": "Feature", "properties": { "_uid_": 136, "id": 135, "type": "Town outside greater Bamako", "source": "OSM", "label": "Diondori", "remarks": "old name was Diondéni" }, "geometry": { "type": "Point", "coordinates": [ -4.7735626, 14.6126052 ] } },
{ "type": "Feature", "properties": { "_uid_": 137, "id": 136, "type": "Town outside greater Bamako", "source": "OSM", "label": "Diongaga", "remarks": null }, "geometry": { "type": "Point", "coordinates": [ -10.8782137, 15.0749683 ] } },
{ "type": "Feature", "properties": { "_uid_": 138, "id": 137, "type": "Town outside greater Bamako", "source": "OSM", "label": "Diora", "remarks": null }, "geometry": { "type": "Point", "coordinates": [ -4.6733031, 12.8573446 ] } },
{ "type": "Feature", "properties": { "_uid_": 139, "id": 138, "type": "Town outside greater Bamako", "source": "OSM", "label": "Dioro", "remarks": null }, "geometry": { "type": "Point", "coordinates": [ -5.8313839, 13.689042 ] } },
{ "type": "Feature", "properties": { "_uid_": 140, "id": 139, "type": "Town outside greater Bamako", "source": "OSM", "label": "Diou", "remarks": null }, "geometry": { "type": "Point", "coordinates": [ -5.972053, 10.5867445 ] } },
{ "type": "Feature", "properties": { "_uid_": 141, "id": 140, "type": "Town outside greater Bamako", "source": "OSM", "label": "Dioumara Koussata", "remarks": null }, "geometry": { "type": "Point", "coordinates": [ -8.5660539, 14.5378493 ] } },
{ "type": "Feature", "properties": { "_uid_": 142, "id": 141, "type": "Town outside greater Bamako", "source": "OSM", "label": "Diouna", "remarks": null }, "geometry": { "type": "Point", "coordinates": [ -5.8200101, 13.4323675 ] } },
{ "type": "Feature", "properties": { "_uid_": 143, "id": 142, "type": "Town outside greater Bamako", "source": "OSM", "label": "Dioundiou Konkankan", "remarks": null }, "geometry": { "type": "Point", "coordinates": [ -5.0547223, 12.8705558 ] } },
{ "type": "Feature", "properties": { "_uid_": 144, "id": 143, "type": "Town outside greater Bamako", "source": "OSM", "label": "Dioungani-Peulh", "remarks": "old name was Diougani" }, "geometry": { "type": "Point", "coordinates": [ -2.7402973, 14.3155804 ] } },
{ "type": "Feature", "properties": { "_uid_": 145, "id": 144, "type": "Town outside greater Bamako", "source": "OSM", "label": "Dioura", "remarks": null }, "geometry": { "type": "Point", "coordinates": [ -5.2512531, 14.8251765 ] } },
{ "type": "Feature", "properties": { "_uid_": 146, "id": 145, "type": "Town outside greater Bamako", "source": "OSM", "label": "Djebock", "remarks": "old name was Djebok" }, "geometry": { "type": "Point", "coordinates": [ 0.2783994, 16.3428288 ] } },
{ "type": "Feature", "properties": { "_uid_": 147, "id": 146, "type": "Town outside greater Bamako", "source": "OSM", "label": "Djidjan", "remarks": null }, "geometry": { "type": "Point", "coordinates": [ -9.4540633, 13.1977308 ] } },
{ "type": "Feature", "properties": { "_uid_": 148, "id": 147, "type": "Town outside greater Bamako", "source": "OSM", "label": "Dogo (in Dogosikasso, Bougouni)", "remarks": null }, "geometry": { "type": "Point", "coordinates": [ -7.3333464, 11.8863878 ] } },
{ "type": "Feature", "properties": { "_uid_": 149, "id": 148, "type": "Town outside greater Bamako", "source": "OSM", "label": "Dogo (in Dogo, Youwarou)", "remarks": null }, "geometry": { "type": "Point", "coordinates": [ -4.4313354, 15.1684022 ] } },
{ "type": "Feature", "properties": { "_uid_": 150, "id": 149, "type": "Town outside greater Bamako", "source": "OSM", "label": "Dogofry", "remarks": null }, "geometry": { "type": "Point", "coordinates": [ -10.9405555, 15.0124998 ] } },
{ "type": "Feature", "properties": { "_uid_": 151, "id": 150, "type": "Town outside greater Bamako", "source": "OSM", "label": "Dogoni", "remarks": null }, "geometry": { "type": "Point", "coordinates": [ -6.0032845, 12.1348533 ] } },
{ "type": "Feature", "properties": { "_uid_": 152, "id": 151, "type": "Town outside greater Bamako", "source": "OSM", "label": "Domba", "remarks": null }, "geometry": { "type": "Point", "coordinates": [ -6.8893855, 11.727013 ] } },
{ "type": "Feature", "properties": { "_uid_": 153, "id": 152, "type": "Town outside greater Bamako", "source": "OSM", "label": "Dombia", "remarks": null }, "geometry": { "type": "Point", "coordinates": [ -11.0508337, 12.7805557 ] } },
{ "type": "Feature", "properties": { "_uid_": 154, "id": 153, "type": "Town outside greater Bamako", "source": "OSM", "label": "Dougabougou Koroni", "remarks": null }, "geometry": { "type": "Point", "coordinates": [ -6.115607, 13.8151677 ] } },
{ "type": "Feature", "properties": { "_uid_": 155, "id": 154, "type": "Town outside greater Bamako", "source": "OSM", "label": "Dougouolo", "remarks": null }, "geometry": { "type": "Point", "coordinates": [ -5.5663246, 12.9228596 ] } },
{ "type": "Feature", "properties": { "_uid_": 156, "id": 155, "type": "Town outside greater Bamako", "source": "OSM", "label": "Doukouria", "remarks": null }, "geometry": { "type": "Point", "coordinates": [ -3.6191666, 16.4255562 ] } },
{ "type": "Feature", "properties": { "_uid_": 157, "id": 156, "type": "Town outside greater Bamako", "source": "OSM", "label": "Doumanaba", "remarks": null }, "geometry": { "type": "Point", "coordinates": [ -5.9332453, 11.6660485 ] } },
{ "type": "Feature", "properties": { "_uid_": 158, "id": 157, "type": "Town outside greater Bamako", "source": "OSM", "label": "Doumanani", "remarks": null }, "geometry": { "type": "Point", "coordinates": [ -6.1742403, 11.6774492 ] } },
{ "type": "Feature", "properties": { "_uid_": 159, "id": 158, "type": "Town outside greater Bamako", "source": "OSM", "label": "Doumbia", "remarks": "old name was Doumba" }, "geometry": { "type": "Point", "coordinates": [ -7.6112126, 13.1041744 ] } },
{ "type": "Feature", "properties": { "_uid_": 160, "id": 159, "type": "Town outside greater Bamako", "source": "OSM", "label": "Douna (in Mondoro, Douentza)", "remarks": null }, "geometry": { "type": "Point", "coordinates": [ -1.7371916, 14.6465482 ] } },
{ "type": "Feature", "properties": { "_uid_": 161, "id": 160, "type": "Town outside greater Bamako", "source": "OSM", "label": "Doura", "remarks": null }, "geometry": { "type": "Point", "coordinates": [ -6.2070585, 13.9279244 ] } },
{ "type": "Feature", "properties": { "_uid_": 162, "id": 161, "type": "Town outside greater Bamako", "source": "OSM", "label": "Douri", "remarks": null }, "geometry": { "type": "Point", "coordinates": [ -9.6050855, 13.0763271 ] } },
{ "type": "Feature", "properties": { "_uid_": 163, "id": 162, "type": "Town outside greater Bamako", "source": "OSM", "label": "Doussoudiana", "remarks": null }, "geometry": { "type": "Point", "coordinates": [ -7.8062626, 11.1505956 ] } },
{ "type": "Feature", "properties": { "_uid_": 164, "id": 163, "type": "Town outside greater Bamako", "source": "OSM", "label": "Essakane", "remarks": null }, "geometry": { "type": "Point", "coordinates": [ -3.6346771, 16.781011 ] } },
{ "type": "Feature", "properties": { "_uid_": 165, "id": 164, "type": "Town outside greater Bamako", "source": "OSM", "label": "Essouk", "remarks": null }, "geometry": { "type": "Point", "coordinates": [ 1.1758334, 18.7536106 ] } },
{ "type": "Feature", "properties": { "_uid_": 166, "id": 165, "type": "Town outside greater Bamako", "source": "OSM", "label": "Fakola", "remarks": null }, "geometry": { "type": "Point", "coordinates": [ -6.9190935, 10.5444293 ] } },
{ "type": "Feature", "properties": { "_uid_": 167, "id": 166, "type": "Town outside greater Bamako", "source": "OSM", "label": "Fallou", "remarks": null }, "geometry": { "type": "Point", "coordinates": [ -7.9325089, 14.5983372 ] } },
{ "type": "Feature", "properties": { "_uid_": 168, "id": 167, "type": "Town outside greater Bamako", "source": "OSM", "label": "Falo", "remarks": null }, "geometry": { "type": "Point", "coordinates": [ -6.2384909, 12.9129331 ] } },
{ "type": "Feature", "properties": { "_uid_": 169, "id": 168, "type": "Town outside greater Bamako", "source": "OSM", "label": "Fama", "remarks": null }, "geometry": { "type": "Point", "coordinates": [ -5.6916667, 11.5347223 ] } },
{ "type": "Feature", "properties": { "_uid_": 170, "id": 169, "type": "Town outside greater Bamako", "source": "OSM", "label": "Famessasso", "remarks": null }, "geometry": { "type": "Point", "coordinates": [ -5.3149591, 12.454985 ] } },
{ "type": "Feature", "properties": { "_uid_": 171, "id": 170, "type": "Town outside greater Bamako", "source": "OSM", "label": "Fana", "remarks": null }, "geometry": { "type": "Point", "coordinates": [ -6.9592154, 12.7770937 ] } },
{ "type": "Feature", "properties": { "_uid_": 172, "id": 171, "type": "Town outside greater Bamako", "source": "OSM", "label": "Fanga", "remarks": null }, "geometry": { "type": "Point", "coordinates": [ -10.4164219, 15.0055886 ] } },
{ "type": "Feature", "properties": { "_uid_": 173, "id": 172, "type": "Town outside greater Bamako", "source": "OSM", "label": "Fangasso", "remarks": "old name was Pakui" }, "geometry": { "type": "Point", "coordinates": [ -4.4464747, 13.5270139 ] } },
{ "type": "Feature", "properties": { "_uid_": 174, "id": 173, "type": "Town outside greater Bamako", "source": "OSM", "label": "Fani", "remarks": null }, "geometry": { "type": "Point", "coordinates": [ -5.3675241, 13.1821853 ] } },
{ "type": "Feature", "properties": { "_uid_": 175, "id": 174, "type": "Town outside greater Bamako", "source": "OSM", "label": "Faraba (in Kourouba, Kati)", "remarks": null }, "geometry": { "type": "Point", "coordinates": [ -8.1465084, 11.9055841 ] } },
{ "type": "Feature", "properties": { "_uid_": 176, "id": 175, "type": "Town outside greater Bamako", "source": "OSM", "label": "Faraba (in Faraba, Kéniéba)", "remarks": null }, "geometry": { "type": "Point", "coordinates": [ -10.898197, 12.4331147 ] } },
{ "type": "Feature", "properties": { "_uid_": 177, "id": 176, "type": "Town outside greater Bamako", "source": "OSM", "label": "Faragouaran", "remarks": null }, "geometry": { "type": "Point", "coordinates": [ -7.7760232, 11.3123323 ] } },
{ "type": "Feature", "properties": { "_uid_": 178, "id": 177, "type": "Town outside greater Bamako", "source": "OSM", "label": "Farakala", "remarks": null }, "geometry": { "type": "Point", "coordinates": [ -6.0041684, 11.3584665 ] } },
{ "type": "Feature", "properties": { "_uid_": 179, "id": 178, "type": "Town outside greater Bamako", "source": "OSM", "label": "Farako (in Fakola, Kolondiéba)", "remarks": null }, "geometry": { "type": "Point", "coordinates": [ -6.8487552, 10.8243663 ] } },
{ "type": "Feature", "properties": { "_uid_": 180, "id": 179, "type": "Town outside greater Bamako", "source": "OSM", "label": "Farako (in Farako, Ségou)", "remarks": null }, "geometry": { "type": "Point", "coordinates": [ -6.3866327, 13.4099524 ] } },
{ "type": "Feature", "properties": { "_uid_": 181, "id": 180, "type": "Town outside greater Bamako", "source": "OSM", "label": "Figuira Tomo", "remarks": null }, "geometry": { "type": "Point", "coordinates": [ -8.3571749, 11.9267806 ] } },
{ "type": "Feature", "properties": { "_uid_": 182, "id": 181, "type": "Town outside greater Bamako", "source": "OSM", "label": "Filamana", "remarks": null }, "geometry": { "type": "Point", "coordinates": [ -7.9539135, 10.4993466 ] } },
{ "type": "Feature", "properties": { "_uid_": 183, "id": 182, "type": "Town outside greater Bamako", "source": "OSM", "label": "Finkolo (in Finkolo, Sikasso)", "remarks": null }, "geometry": { "type": "Point", "coordinates": [ -6.1984992, 11.2208052 ] } },
{ "type": "Feature", "properties": { "_uid_": 184, "id": 183, "type": "Town outside greater Bamako", "source": "OSM", "label": "Finkolo (in Danderesso, Sikasso)", "remarks": null }, "geometry": { "type": "Point", "coordinates": [ -5.5117934, 11.2644002 ] } },
{ "type": "Feature", "properties": { "_uid_": 185, "id": 184, "type": "Town outside greater Bamako", "source": "OSM", "label": "Fion", "remarks": null }, "geometry": { "type": "Point", "coordinates": [ -4.7191959, 13.407432 ] } },
{ "type": "Feature", "properties": { "_uid_": 186, "id": 185, "type": "Town outside greater Bamako", "source": "OSM", "label": "Folomana", "remarks": null }, "geometry": { "type": "Point", "coordinates": [ -5.154376, 13.6040174 ] } },
{ "type": "Feature", "properties": { "_uid_": 187, "id": 186, "type": "Town outside greater Bamako", "source": "OSM", "label": "Fonfona", "remarks": null }, "geometry": { "type": "Point", "coordinates": [ -5.6058335, 12.6741667 ] } },
{ "type": "Feature", "properties": { "_uid_": 188, "id": 187, "type": "Town outside greater Bamako", "source": "OSM", "label": "Forgho Sonrhai", "remarks": null }, "geometry": { "type": "Point", "coordinates": [ -0.075195, 16.5045814 ] } },
{ "type": "Feature", "properties": { "_uid_": 189, "id": 188, "type": "Town outside greater Bamako", "source": "OSM", "label": "Founia Moriba", "remarks": null }, "geometry": { "type": "Point", "coordinates": [ -9.4765225, 12.9000823 ] } },
{ "type": "Feature", "properties": { "_uid_": 190, "id": 189, "type": "Town outside greater Bamako", "source": "OSM", "label": "Fourou", "remarks": null }, "geometry": { "type": "Point", "coordinates": [ -6.1424649, 10.7447735 ] } },
{ "type": "Feature", "properties": { "_uid_": 191, "id": 190, "type": "Town outside greater Bamako", "source": "OSM", "label": "Gagna", "remarks": null }, "geometry": { "type": "Point", "coordinates": [ -4.5114703, 14.0121395 ] } },
{ "type": "Feature", "properties": { "_uid_": 192, "id": 191, "type": "Town outside greater Bamako", "source": "OSM", "label": "Gakoura Rive Droite", "remarks": null }, "geometry": { "type": "Point", "coordinates": [ -11.842134, 14.6132852 ] } },
{ "type": "Feature", "properties": { "_uid_": 193, "id": 192, "type": "Town outside greater Bamako", "source": "OSM", "label": "Garalo", "remarks": null }, "geometry": { "type": "Point", "coordinates": [ -7.439476, 10.9819417 ] } },
{ "type": "Feature", "properties": { "_uid_": 194, "id": 193, "type": "Town outside greater Bamako", "source": "OSM", "label": "Garbakoira", "remarks": "old name was Garbaikoira" }, "geometry": { "type": "Point", "coordinates": [ -3.1819807, 16.5073805 ] } },
{ "type": "Feature", "properties": { "_uid_": 195, "id": 194, "type": "Town outside greater Bamako", "source": "OSM", "label": "Gargando", "remarks": "old name was Gorgonda" }, "geometry": { "type": "Point", "coordinates": [ -4.1688615, 16.4677932 ] } },
{ "type": "Feature", "properties": { "_uid_": 196, "id": 195, "type": "Town outside greater Bamako", "source": "OSM", "label": "Gathi-Loumo", "remarks": "old name was Gatié" }, "geometry": { "type": "Point", "coordinates": [ -4.6116866, 15.4693603 ] } },
{ "type": "Feature", "properties": { "_uid_": 197, "id": 196, "type": "Town outside greater Bamako", "source": "OSM", "label": "Gogui (in Gogui, Nioro)", "remarks": null }, "geometry": { "type": "Point", "coordinates": [ -9.3284593, 15.6835067 ] } },
{ "type": "Feature", "properties": { "_uid_": 198, "id": 197, "type": "Town outside greater Bamako", "source": "OSM", "label": "Gomitogo", "remarks": null }, "geometry": { "type": "Point", "coordinates": [ -4.6522215, 13.9113832 ] } },
{ "type": "Feature", "properties": { "_uid_": 199, "id": 198, "type": "Town outside greater Bamako", "source": "OSM", "label": "Gongasso", "remarks": null }, "geometry": { "type": "Point", "coordinates": [ -5.7897419, 11.5448136 ] } },
{ "type": "Feature", "properties": { "_uid_": 200, "id": 199, "type": "Town outside greater Bamako", "source": "OSM", "label": "Gory Diafounou", "remarks": null }, "geometry": { "type": "Point", "coordinates": [ -10.7576645, 15.1056409 ] } },
{ "type": "Feature", "properties": { "_uid_": 201, "id": 200, "type": "Town outside greater Bamako", "source": "OSM", "label": "Gossi", "remarks": null }, "geometry": { "type": "Point", "coordinates": [ -1.3094536, 15.8179118 ] } },
{ "type": "Feature", "properties": { "_uid_": 202, "id": 201, "type": "Town outside greater Bamako", "source": "OSM", "label": "Gouendo", "remarks": null }, "geometry": { "type": "Point", "coordinates": [ -6.3205966, 12.7949001 ] } },
{ "type": "Feature", "properties": { "_uid_": 203, "id": 202, "type": "Town outside greater Bamako", "source": "OSM", "label": "Goumbou", "remarks": null }, "geometry": { "type": "Point", "coordinates": [ -7.4546883, 14.9894938 ] } },
{ "type": "Feature", "properties": { "_uid_": 204, "id": 203, "type": "Town outside greater Bamako", "source": "OSM", "label": "Goumera", "remarks": null }, "geometry": { "type": "Point", "coordinates": [ -11.2994159, 14.5580892 ] } },
{ "type": "Feature", "properties": { "_uid_": 205, "id": 204, "type": "Town outside greater Bamako", "source": "OSM", "label": "Goundaka", "remarks": null }, "geometry": { "type": "Point", "coordinates": [ -3.946633, 14.5000656 ] } },
{ "type": "Feature", "properties": { "_uid_": 206, "id": 205, "type": "Town outside greater Bamako", "source": "OSM", "label": "Goundam", "remarks": null }, "geometry": { "type": "Point", "coordinates": [ -3.6636275, 16.4168533 ] } },
{ "type": "Feature", "properties": { "_uid_": 207, "id": 206, "type": "Town outside greater Bamako", "source": "OSM", "label": "Goundara", "remarks": null }, "geometry": { "type": "Point", "coordinates": [ -10.3668822, 14.0398841 ] } },
{ "type": "Feature", "properties": { "_uid_": 208, "id": 207, "type": "Town outside greater Bamako", "source": "OSM", "label": "Gounfan", "remarks": null }, "geometry": { "type": "Point", "coordinates": [ -11.0868712, 13.4947394 ] } },
{ "type": "Feature", "properties": { "_uid_": 209, "id": 208, "type": "Town outside greater Bamako", "source": "OSM", "label": "Gouni", "remarks": null }, "geometry": { "type": "Point", "coordinates": [ -7.5352779, 12.8719445 ] } },
{ "type": "Feature", "properties": { "_uid_": 210, "id": 209, "type": "Town outside greater Bamako", "source": "OSM", "label": "Gourma-Rharous", "remarks": "old name was Gourma-Rarous" }, "geometry": { "type": "Point", "coordinates": [ -1.925352, 16.8776652 ] } },
{ "type": "Feature", "properties": { "_uid_": 211, "id": 210, "type": "Town outside greater Bamako", "source": "OSM", "label": "Groumera", "remarks": null }, "geometry": { "type": "Point", "coordinates": [ -9.1395387, 14.8288308 ] } },
{ "type": "Feature", "properties": { "_uid_": 212, "id": 211, "type": "Town outside greater Bamako", "source": "OSM", "label": "Gueleninkoro", "remarks": "old name was Guelenenkoro; Guelelinkoro" }, "geometry": { "type": "Point", "coordinates": [ -8.5230685, 11.1484592 ] } },
{ "type": "Feature", "properties": { "_uid_": 213, "id": 212, "type": "Town outside greater Bamako", "source": "OSM", "label": "Guemoukouraba", "remarks": null }, "geometry": { "type": "Point", "coordinates": [ -9.3206375, 14.2595121 ] } },
{ "type": "Feature", "properties": { "_uid_": 214, "id": 213, "type": "Town outside greater Bamako", "source": "OSM", "label": "Guihoyo", "remarks": "old name was Guioyo" }, "geometry": { "type": "Point", "coordinates": [ -8.2452906, 13.5034613 ] } },
{ "type": "Feature", "properties": { "_uid_": 215, "id": 214, "type": "Town outside greater Bamako", "source": "OSM", "label": "Habaladougou", "remarks": null }, "geometry": { "type": "Point", "coordinates": [ -8.6370692, 12.0415012 ] } },
{ "type": "Feature", "properties": { "_uid_": 216, "id": 215, "type": "Town outside greater Bamako", "source": "OSM", "label": "Haibongo", "remarks": null }, "geometry": { "type": "Point", "coordinates": [ -3.2460603, 16.2229165 ] } },
{ "type": "Feature", "properties": { "_uid_": 217, "id": 216, "type": "Town outside greater Bamako", "source": "OSM", "label": "Hangabera", "remarks": "old name was Angabéré" }, "geometry": { "type": "Point", "coordinates": [ -3.7258075, 16.5875088 ] } },
{ "type": "Feature", "properties": { "_uid_": 218, "id": 217, "type": "Town outside greater Bamako", "source": "OSM", "label": "Horokoto", "remarks": null }, "geometry": { "type": "Point", "coordinates": [ -11.3522034, 13.6228531 ] } },
{ "type": "Feature", "properties": { "_uid_": 219, "id": 218, "type": "Town outside greater Bamako", "source": "OSM", "label": "Inabag", "remarks": null }, "geometry": { "type": "Point", "coordinates": [ -1.233645, 19.3460999 ] } },
{ "type": "Feature", "properties": { "_uid_": 220, "id": 219, "type": "Town outside greater Bamako", "source": "OSM", "label": "Inadiatafane", "remarks": null }, "geometry": { "type": "Point", "coordinates": [ -2.1542429, 15.6441225 ] } },
{ "type": "Feature", "properties": { "_uid_": 221, "id": 220, "type": "Town outside greater Bamako", "source": "OSM", "label": "Kabarasso", "remarks": null }, "geometry": { "type": "Point", "coordinates": [ -5.9372957, 12.0077312 ] } },
{ "type": "Feature", "properties": { "_uid_": 222, "id": 221, "type": "Town outside greater Bamako", "source": "OSM", "label": "Kaboila", "remarks": null }, "geometry": { "type": "Point", "coordinates": [ -5.6336209, 11.210475 ] } },
{ "type": "Feature", "properties": { "_uid_": 223, "id": 222, "type": "Town outside greater Bamako", "source": "OSM", "label": "Kadiaba Kadiel", "remarks": null }, "geometry": { "type": "Point", "coordinates": [ -9.6477153, 15.1264498 ] } },
{ "type": "Feature", "properties": { "_uid_": 224, "id": 223, "type": "Town outside greater Bamako", "source": "OSM", "label": "Kafana", "remarks": null }, "geometry": { "type": "Point", "coordinates": [ -6.1369609, 11.5122632 ] } },
{ "type": "Feature", "properties": { "_uid_": 225, "id": 224, "type": "Town outside greater Bamako", "source": "OSM", "label": "Kafouziéla", "remarks": null }, "geometry": { "type": "Point", "coordinates": [ -5.6117114, 11.4278349 ] } },
{ "type": "Feature", "properties": { "_uid_": 226, "id": 225, "type": "Town outside greater Bamako", "source": "OSM", "label": "Kakoulou", "remarks": null }, "geometry": { "type": "Point", "coordinates": [ -11.2661842, 14.2826676 ] } },
{ "type": "Feature", "properties": { "_uid_": 227, "id": 226, "type": "Town outside greater Bamako", "source": "OSM", "label": "Kalana", "remarks": null }, "geometry": { "type": "Point", "coordinates": [ -8.196317, 10.7864112 ] } },
{ "type": "Feature", "properties": { "_uid_": 228, "id": 227, "type": "Town outside greater Bamako", "source": "OSM", "label": "Kalinioro", "remarks": null }, "geometry": { "type": "Point", "coordinates": [ -11.7514166, 15.363071 ] } },
{ "type": "Feature", "properties": { "_uid_": 229, "id": 228, "type": "Town outside greater Bamako", "source": "OSM", "label": "Kani-Bonzon", "remarks": null }, "geometry": { "type": "Point", "coordinates": [ -3.6190109, 14.1427217 ] } },
{ "type": "Feature", "properties": { "_uid_": 230, "id": 229, "type": "Town outside greater Bamako", "source": "OSM", "label": "Kapala (in Sikasso, Sikasso)", "remarks": null }, "geometry": { "type": "Point", "coordinates": [ -5.7211289, 11.1146856 ] } },
{ "type": "Feature", "properties": { "_uid_": 231, "id": 230, "type": "Town outside greater Bamako", "source": "OSM", "label": "Kapala (in Molobala, Koutiala)", "remarks": null }, "geometry": { "type": "Point", "coordinates": [ -5.4578858, 12.2093312 ] } },
{ "type": "Feature", "properties": { "_uid_": 232, "id": 231, "type": "Town outside greater Bamako", "source": "OSM", "label": "Karaba Kagoua", "remarks": null }, "geometry": { "type": "Point", "coordinates": [ -4.8944445, 12.9169445 ] } },
{ "type": "Feature", "properties": { "_uid_": 233, "id": 232, "type": "Town outside greater Bamako", "source": "OSM", "label": "Karan", "remarks": null }, "geometry": { "type": "Point", "coordinates": [ -8.5256997, 12.1329868 ] } },
{ "type": "Feature", "properties": { "_uid_": 234, "id": 233, "type": "Town outside greater Bamako", "source": "OSM", "label": "Karangana", "remarks": null }, "geometry": { "type": "Point", "coordinates": [ -5.0381545, 12.2188427 ] } },
{ "type": "Feature", "properties": { "_uid_": 235, "id": 234, "type": "Town outside greater Bamako", "source": "OSM", "label": "Karangasso", "remarks": null }, "geometry": { "type": "Point", "coordinates": [ -5.2568001, 12.2795982 ] } },
{ "type": "Feature", "properties": { "_uid_": 236, "id": 235, "type": "Town outside greater Bamako", "source": "OSM", "label": "Kargue", "remarks": null }, "geometry": { "type": "Point", "coordinates": [ -3.8144087, 14.7934385 ] } },
{ "type": "Feature", "properties": { "_uid_": 237, "id": 236, "type": "Town outside greater Bamako", "source": "OSM", "label": "Kassaro", "remarks": null }, "geometry": { "type": "Point", "coordinates": [ -8.881685, 12.951628 ] } },
{ "type": "Feature", "properties": { "_uid_": 238, "id": 237, "type": "Town outside greater Bamako", "source": "OSM", "label": "Kazangasso", "remarks": null }, "geometry": { "type": "Point", "coordinates": [ -5.5677448, 13.0435411 ] } },
{ "type": "Feature", "properties": { "_uid_": 239, "id": 238, "type": "Town outside greater Bamako", "source": "OSM", "label": "Kel Mahla", "remarks": null }, "geometry": { "type": "Point", "coordinates": [ -5.1350003, 16.3936119 ] } },
{ "type": "Feature", "properties": { "_uid_": 240, "id": 239, "type": "Town outside greater Bamako", "source": "OSM", "label": "Kéléya", "remarks": null }, "geometry": { "type": "Point", "coordinates": [ -7.790278, 11.827217 ] } },
{ "type": "Feature", "properties": { "_uid_": 241, "id": 240, "type": "Town outside greater Bamako", "source": "OSM", "label": "Kenekoun", "remarks": null }, "geometry": { "type": "Point", "coordinates": [ -7.2436954, 13.1064634 ] } },
{ "type": "Feature", "properties": { "_uid_": 242, "id": 241, "type": "Town outside greater Bamako", "source": "OSM", "label": "Kiban", "remarks": null }, "geometry": { "type": "Point", "coordinates": [ -7.3529765, 13.578154 ] } },
{ "type": "Feature", "properties": { "_uid_": 243, "id": 242, "type": "Town outside greater Bamako", "source": "OSM", "label": "Kiffosso 1", "remarks": null }, "geometry": { "type": "Point", "coordinates": [ -4.8999778, 12.5011401 ] } },
{ "type": "Feature", "properties": { "_uid_": 244, "id": 243, "type": "Town outside greater Bamako", "source": "OSM", "label": "Kignan", "remarks": null }, "geometry": { "type": "Point", "coordinates": [ -6.0140438, 11.8486057 ] } },
{ "type": "Feature", "properties": { "_uid_": 245, "id": 244, "type": "Town outside greater Bamako", "source": "OSM", "label": "Kimparana (in Kimparana, San)", "remarks": null }, "geometry": { "type": "Point", "coordinates": [ -4.9257578, 12.8369522 ] } },
{ "type": "Feature", "properties": { "_uid_": 246, "id": 245, "type": "Town outside greater Bamako", "source": "OSM", "label": "Kirango", "remarks": null }, "geometry": { "type": "Point", "coordinates": [ -6.0693638, 13.7012437 ] } },
{ "type": "Feature", "properties": { "_uid_": 247, "id": 246, "type": "Town outside greater Bamako", "source": "OSM", "label": "Kirchamba", "remarks": "old name was Kirssamba" }, "geometry": { "type": "Point", "coordinates": [ -3.2473424, 16.3623701 ] } },
{ "type": "Feature", "properties": { "_uid_": 248, "id": 247, "type": "City outside greater Bamako", "source": "OSM", "label": "Kita", "remarks": null }, "geometry": { "type": "Point", "coordinates": [ -9.4853953, 13.0350338 ] } },
{ "type": "Feature", "properties": { "_uid_": 249, "id": 248, "type": "Town outside greater Bamako", "source": "OSM", "label": "Kobri", "remarks": null }, "geometry": { "type": "Point", "coordinates": [ -9.8993841, 13.1185156 ] } },
{ "type": "Feature", "properties": { "_uid_": 250, "id": 249, "type": "Town outside greater Bamako", "source": "OSM", "label": "Kokofata", "remarks": null }, "geometry": { "type": "Point", "coordinates": [ -9.9448025, 12.8784198 ] } },
{ "type": "Feature", "properties": { "_uid_": 251, "id": 250, "type": "Town outside greater Bamako", "source": "OSM", "label": "Kokry", "remarks": "old name was Kokry-Centre" }, "geometry": { "type": "Point", "coordinates": [ -5.5119182, 13.9599525 ] } },
{ "type": "Feature", "properties": { "_uid_": 252, "id": 251, "type": "Town outside greater Bamako", "source": "OSM", "label": "Kola Sokoro", "remarks": null }, "geometry": { "type": "Point", "coordinates": [ -7.4416699, 11.4250002 ] } },
{ "type": "Feature", "properties": { "_uid_": 253, "id": 252, "type": "Town outside greater Bamako", "source": "OSM", "label": "Kologon-Habe", "remarks": "old name was Koundougou" }, "geometry": { "type": "Point", "coordinates": [ -3.4418442, 13.8161959 ] } },
{ "type": "Feature", "properties": { "_uid_": 254, "id": 253, "type": "Town outside greater Bamako", "source": "OSM", "label": "Kolokoba", "remarks": null }, "geometry": { "type": "Point", "coordinates": [ -5.9982034, 11.2094345 ] } },
{ "type": "Feature", "properties": { "_uid_": 255, "id": 254, "type": "Town outside greater Bamako", "source": "OSM", "label": "Kolongo", "remarks": "old name was Kolongotomo" }, "geometry": { "type": "Point", "coordinates": [ -5.6866421, 13.8749495 ] } },
{ "type": "Feature", "properties": { "_uid_": 256, "id": 255, "type": "Town outside greater Bamako", "source": "OSM", "label": "Koloni (in Doussodiana, Yanfolila)", "remarks": null }, "geometry": { "type": "Point", "coordinates": [ -7.760985, 11.0382334 ] } },
{ "type": "Feature", "properties": { "_uid_": 257, "id": 256, "type": "Town outside greater Bamako", "source": "OSM", "label": "Koloni (in Kouniana, Koutiala)", "remarks": null }, "geometry": { "type": "Point", "coordinates": [ -5.3272994, 12.7640047 ] } },
{ "type": "Feature", "properties": { "_uid_": 258, "id": 257, "type": "Town outside greater Bamako", "source": "OSM", "label": "Kolosso", "remarks": null }, "geometry": { "type": "Point", "coordinates": [ -6.5494418, 11.1130745 ] } },
{ "type": "Feature", "properties": { "_uid_": 259, "id": 258, "type": "Town outside greater Bamako", "source": "OSM", "label": "Kondi", "remarks": "old name was Koundi" }, "geometry": { "type": "Point", "coordinates": [ -3.4760714, 16.367709 ] } },
{ "type": "Feature", "properties": { "_uid_": 260, "id": 259, "type": "Town outside greater Bamako", "source": "OSM", "label": "Kondo", "remarks": "old name was Kando" }, "geometry": { "type": "Point", "coordinates": [ -4.8535814, 14.5460937 ] } },
{ "type": "Feature", "properties": { "_uid_": 261, "id": 260, "type": "Town outside greater Bamako", "source": "OSM", "label": "Koniakary", "remarks": "old name was Koniakari" }, "geometry": { "type": "Point", "coordinates": [ -10.8998515, 14.5776623 ] } },
{ "type": "Feature", "properties": { "_uid_": 262, "id": 261, "type": "Town outside greater Bamako", "source": "OSM", "label": "Konina", "remarks": null }, "geometry": { "type": "Point", "coordinates": [ -6.1779742, 12.4798588 ] } },
{ "type": "Feature", "properties": { "_uid_": 263, "id": 262, "type": "Town outside greater Bamako", "source": "OSM", "label": "Konodimini", "remarks": null }, "geometry": { "type": "Point", "coordinates": [ -6.4234674, 13.3218465 ] } },
{ "type": "Feature", "properties": { "_uid_": 264, "id": 263, "type": "Town outside greater Bamako", "source": "OSM", "label": "Koporo Na", "remarks": null }, "geometry": { "type": "Point", "coordinates": [ -3.3597833, 14.1292562 ] } },
{ "type": "Feature", "properties": { "_uid_": 265, "id": 264, "type": "Town outside greater Bamako", "source": "OSM", "label": "Koporo Pen", "remarks": "old name was Koporokénié-Pé" }, "geometry": { "type": "Point", "coordinates": [ -3.2993466, 14.226349 ] } },
{ "type": "Feature", "properties": { "_uid_": 266, "id": 265, "type": "Town outside greater Bamako", "source": "OSM", "label": "Kora", "remarks": null }, "geometry": { "type": "Point", "coordinates": [ -4.8855114, 14.5343116 ] } },
{ "type": "Feature", "properties": { "_uid_": 267, "id": 266, "type": "Town outside greater Bamako", "source": "OSM", "label": "Kormou", "remarks": null }, "geometry": { "type": "Point", "coordinates": [ -4.2194059, 15.6753151 ] } },
{ "type": "Feature", "properties": { "_uid_": 268, "id": 267, "type": "Town outside greater Bamako", "source": "OSM", "label": "Koro", "remarks": null }, "geometry": { "type": "Point", "coordinates": [ -3.0806981, 14.0698445 ] } },
{ "type": "Feature", "properties": { "_uid_": 269, "id": 268, "type": "Town outside greater Bamako", "source": "OSM", "label": "Koronga", "remarks": null }, "geometry": { "type": "Point", "coordinates": [ -7.6095251, 15.3334062 ] } },
{ "type": "Feature", "properties": { "_uid_": 270, "id": 269, "type": "Town outside greater Bamako", "source": "OSM", "label": "Kotouba", "remarks": null }, "geometry": { "type": "Point", "coordinates": [ -8.7249992, 13.4731378 ] } },
{ "type": "Feature", "properties": { "_uid_": 271, "id": 270, "type": "Town outside greater Bamako", "source": "OSM", "label": "Kotoula", "remarks": null }, "geometry": { "type": "Point", "coordinates": [ -6.4244447, 12.3925 ] } },
{ "type": "Feature", "properties": { "_uid_": 272, "id": 271, "type": "Town outside greater Bamako", "source": "OSM", "label": "Kouakourou", "remarks": "old name was Kuakuru" }, "geometry": { "type": "Point", "coordinates": [ -4.4933873, 14.2222881 ] } },
{ "type": "Feature", "properties": { "_uid_": 273, "id": 272, "type": "Town outside greater Bamako", "source": "OSM", "label": "Koubaye", "remarks": "old name was Koubaye-Kotaba" }, "geometry": { "type": "Point", "coordinates": [ -4.4302915, 14.4161087 ] } },
{ "type": "Feature", "properties": { "_uid_": 274, "id": 273, "type": "Town outside greater Bamako", "source": "OSM", "label": "Koubi", "remarks": null }, "geometry": { "type": "Point", "coordinates": [ -4.8669443, 14.394167 ] } },
{ "type": "Feature", "properties": { "_uid_": 275, "id": 274, "type": "Town outside greater Bamako", "source": "OSM", "label": "Koula (in Koula (Koul), Koulikoro)", "remarks": null }, "geometry": { "type": "Point", "coordinates": [ -7.6530557, 13.1158332 ] } },
{ "type": "Feature", "properties": { "_uid_": 276, "id": 275, "type": "Town outside greater Bamako", "source": "OSM", "label": "Koula (in Koula, Tominian)", "remarks": null }, "geometry": { "type": "Point", "coordinates": [ -4.2716836, 13.2440546 ] } },
{ "type": "Feature", "properties": { "_uid_": 277, "id": 276, "type": "Town outside greater Bamako", "source": "OSM", "label": "Kouloum", "remarks": null }, "geometry": { "type": "Point", "coordinates": [ -11.3702148, 14.4508844 ] } },
{ "type": "Feature", "properties": { "_uid_": 278, "id": 277, "type": "Town outside greater Bamako", "source": "OSM", "label": "Koumankou", "remarks": null }, "geometry": { "type": "Point", "coordinates": [ -6.1404247, 12.0982113 ] } },
{ "type": "Feature", "properties": { "_uid_": 279, "id": 278, "type": "Town outside greater Bamako", "source": "OSM", "label": "Koumantou", "remarks": null }, "geometry": { "type": "Point", "coordinates": [ -6.8429583, 11.4069002 ] } },
{ "type": "Feature", "properties": { "_uid_": 280, "id": 279, "type": "Town outside greater Bamako", "source": "OSM", "label": "Koumbewel", "remarks": null }, "geometry": { "type": "Point", "coordinates": [ -3.0053898, 14.986181 ] } },
{ "type": "Feature", "properties": { "_uid_": 281, "id": 280, "type": "Town outside greater Bamako", "source": "OSM", "label": "Koumbia", "remarks": "old name was Koumia" }, "geometry": { "type": "Point", "coordinates": [ -4.6900096, 12.5963312 ] } },
{ "type": "Feature", "properties": { "_uid_": 282, "id": 281, "type": "Town outside greater Bamako", "source": "OSM", "label": "Koundian", "remarks": null }, "geometry": { "type": "Point", "coordinates": [ -10.6828972, 13.161166 ] } },
{ "type": "Feature", "properties": { "_uid_": 283, "id": 282, "type": "Town outside greater Bamako", "source": "OSM", "label": "Koungoba", "remarks": null }, "geometry": { "type": "Point", "coordinates": [ -6.4344444, 11.6044445 ] } },
{ "type": "Feature", "properties": { "_uid_": 284, "id": 283, "type": "Town outside greater Bamako", "source": "OSM", "label": "Kouo", "remarks": null }, "geometry": { "type": "Point", "coordinates": [ -6.0563912, 12.3776988 ] } },
{ "type": "Feature", "properties": { "_uid_": 285, "id": 284, "type": "Town outside greater Bamako", "source": "OSM", "label": "Kouoro", "remarks": null }, "geometry": { "type": "Point", "coordinates": [ -5.7030215, 12.0117787 ] } },
{ "type": "Feature", "properties": { "_uid_": 286, "id": 285, "type": "Town outside greater Bamako", "source": "OSM", "label": "Kourouba", "remarks": null }, "geometry": { "type": "Point", "coordinates": [ -8.2902631, 12.0099922 ] } },
{ "type": "Feature", "properties": { "_uid_": 287, "id": 286, "type": "Town outside greater Bamako", "source": "OSM", "label": "Kouroukoto", "remarks": null }, "geometry": { "type": "Point", "coordinates": [ -10.4024925, 12.6032731 ] } },
{ "type": "Feature", "properties": { "_uid_": 288, "id": 287, "type": "Town outside greater Bamako", "source": "OSM", "label": "Kourouma", "remarks": null }, "geometry": { "type": "Point", "coordinates": [ -5.8360655, 11.8793651 ] } },
{ "type": "Feature", "properties": { "_uid_": 289, "id": 288, "type": "Town outside greater Bamako", "source": "OSM", "label": "Kourouninkoto", "remarks": null }, "geometry": { "type": "Point", "coordinates": [ -9.5765727, 13.8581072 ] } },
{ "type": "Feature", "properties": { "_uid_": 290, "id": 289, "type": "Town outside greater Bamako", "source": "OSM", "label": "Koury", "remarks": "old name was Kuri" }, "geometry": { "type": "Point", "coordinates": [ -4.8016714, 12.181178 ] } },
{ "type": "Feature", "properties": { "_uid_": 291, "id": 290, "type": "Town outside greater Bamako", "source": "OSM", "label": "Lambidou", "remarks": null }, "geometry": { "type": "Point", "coordinates": [ -9.5512904, 14.3131512 ] } },
{ "type": "Feature", "properties": { "_uid_": 292, "id": 291, "type": "Town outside greater Bamako", "source": "OSM", "label": "Lanfiala", "remarks": "old name was Lanféria" }, "geometry": { "type": "Point", "coordinates": [ -4.1484683, 13.4950325 ] } },
{ "type": "Feature", "properties": { "_uid_": 293, "id": 292, "type": "Town outside greater Bamako", "source": "OSM", "label": "Lany-Tounka", "remarks": null }, "geometry": { "type": "Point", "coordinates": [ -12.0551308, 14.7166144 ] } },
{ "type": "Feature", "properties": { "_uid_": 294, "id": 293, "type": "Town outside greater Bamako", "source": "OSM", "label": "Lobougoula", "remarks": null }, "geometry": { "type": "Point", "coordinates": [ -5.9813535, 11.0344476 ] } },
{ "type": "Feature", "properties": { "_uid_": 295, "id": 294, "type": "Town outside greater Bamako", "source": "OSM", "label": "Loulouni", "remarks": null }, "geometry": { "type": "Point", "coordinates": [ -5.605671, 10.888664 ] } },
{ "type": "Feature", "properties": { "_uid_": 296, "id": 295, "type": "Town outside greater Bamako", "source": "OSM", "label": "M'Pessoba", "remarks": null }, "geometry": { "type": "Point", "coordinates": [ -5.718545, 12.6654072 ] } },
{ "type": "Feature", "properties": { "_uid_": 297, "id": 296, "type": "Town outside greater Bamako", "source": "OSM", "label": "Ke Macina", "remarks": "old name was Macina" }, "geometry": { "type": "Point", "coordinates": [ -5.3586383, 13.9619411 ] } },
{ "type": "Feature", "properties": { "_uid_": 298, "id": 297, "type": "Town outside greater Bamako", "source": "OSM", "label": "Madiakoye", "remarks": "old name was Modiakoï" }, "geometry": { "type": "Point", "coordinates": [ -2.3647567, 16.7503708 ] } },
{ "type": "Feature", "properties": { "_uid_": 299, "id": 298, "type": "Town outside greater Bamako", "source": "OSM", "label": "Madiama", "remarks": null }, "geometry": { "type": "Point", "coordinates": [ -4.3934631, 13.7943147 ] } },
{ "type": "Feature", "properties": { "_uid_": 300, "id": 299, "type": "Town outside greater Bamako", "source": "OSM", "label": "Madiga-Sacko", "remarks": null }, "geometry": { "type": "Point", "coordinates": [ -9.305738, 14.3592416 ] } },
{ "type": "Feature", "properties": { "_uid_": 301, "id": 300, "type": "Town outside greater Bamako", "source": "OSM", "label": "Madina Sacko", "remarks": null }, "geometry": { "type": "Point", "coordinates": [ -7.5463944, 13.7800886 ] } },
{ "type": "Feature", "properties": { "_uid_": 302, "id": 301, "type": "Town outside greater Bamako", "source": "OSM", "label": "Madina", "remarks": null }, "geometry": { "type": "Point", "coordinates": [ -8.8604862, 13.3981306 ] } },
{ "type": "Feature", "properties": { "_uid_": 303, "id": 302, "type": "Town outside greater Bamako", "source": "OSM", "label": "Madougou-Dogon", "remarks": "old name was Madougou" }, "geometry": { "type": "Point", "coordinates": [ -3.0815234, 14.4006675 ] } },
{ "type": "Feature", "properties": { "_uid_": 304, "id": 303, "type": "Town outside greater Bamako", "source": "OSM", "label": "Mahou", "remarks": "old name was Mao" }, "geometry": { "type": "Point", "coordinates": [ -4.6286563, 12.1332206 ] } },
{ "type": "Feature", "properties": { "_uid_": 305, "id": 304, "type": "Town outside greater Bamako", "source": "OSM", "label": "Makono (in Sirakoro, Kita)", "remarks": null }, "geometry": { "type": "Point", "coordinates": [ -9.0466205, 12.6779667 ] } },
{ "type": "Feature", "properties": { "_uid_": 306, "id": 305, "type": "Town outside greater Bamako", "source": "OSM", "label": "Mandiakuy", "remarks": "old name was Mandjakoui" }, "geometry": { "type": "Point", "coordinates": [ -4.4628829, 13.0192302 ] } },
{ "type": "Feature", "properties": { "_uid_": 307, "id": 306, "type": "Town outside greater Bamako", "source": "OSM", "label": "Maritoumania", "remarks": null }, "geometry": { "type": "Point", "coordinates": [ -10.8654174, 14.5831548 ] } },
{ "type": "Feature", "properties": { "_uid_": 308, "id": 307, "type": "Town outside greater Bamako", "source": "OSM", "label": "Markanibougou", "remarks": null }, "geometry": { "type": "Point", "coordinates": [ -6.1574933, 13.5915127 ] } },
{ "type": "Feature", "properties": { "_uid_": 309, "id": 308, "type": "Town outside greater Bamako", "source": "OSM", "label": "Massala (in Ségou, Ségou)", "remarks": null }, "geometry": { "type": "Point", "coordinates": [ -6.5017778, 13.2808709 ] } },
{ "type": "Feature", "properties": { "_uid_": 310, "id": 309, "type": "Town outside greater Bamako", "source": "OSM", "label": "Massantola", "remarks": null }, "geometry": { "type": "Point", "coordinates": [ -7.8045169, 13.4931428 ] } },
{ "type": "Feature", "properties": { "_uid_": 311, "id": 310, "type": "Town outside greater Bamako", "source": "OSM", "label": "Massigui", "remarks": null }, "geometry": { "type": "Point", "coordinates": [ -6.773048, 11.8577557 ] } },
{ "type": "Feature", "properties": { "_uid_": 312, "id": 311, "type": "Town outside greater Bamako", "source": "OSM", "label": "Matomo Marka", "remarks": null }, "geometry": { "type": "Point", "coordinates": [ -4.9666666, 13.8458337 ] } },
{ "type": "Feature", "properties": { "_uid_": 313, "id": 312, "type": "Town outside greater Bamako", "source": "OSM", "label": "Menamba1", "remarks": "old name was Manenba" }, "geometry": { "type": "Point", "coordinates": [ -4.6733331, 12.3955555 ] } },
{ "type": "Feature", "properties": { "_uid_": 314, "id": 313, "type": "Town outside greater Bamako", "source": "OSM", "label": "Miniko-Soba", "remarks": null }, "geometry": { "type": "Point", "coordinates": [ -6.3247223, 11.1911116 ] } },
{ "type": "Feature", "properties": { "_uid_": 315, "id": 314, "type": "Town outside greater Bamako", "source": "OSM", "label": "Minkiéri", "remarks": "old name was Minkiri" }, "geometry": { "type": "Point", "coordinates": [ -2.4449878, 16.7572939 ] } },
{ "type": "Feature", "properties": { "_uid_": 316, "id": 315, "type": "Town outside greater Bamako", "source": "OSM", "label": "Missirikoro", "remarks": null }, "geometry": { "type": "Point", "coordinates": [ -5.7424998, 11.2677775 ] } },
{ "type": "Feature", "properties": { "_uid_": 317, "id": 316, "type": "Town outside greater Bamako", "source": "OSM", "label": "Molobala", "remarks": null }, "geometry": { "type": "Point", "coordinates": [ -5.3282784, 12.1714477 ] } },
{ "type": "Feature", "properties": { "_uid_": 318, "id": 317, "type": "Town outside greater Bamako", "source": "OSM", "label": "Mondoro-Habe (in Mondoro, Douentza)", "remarks": "old name was Moundoro" }, "geometry": { "type": "Point", "coordinates": [ -1.9511215, 14.6757678 ] } },
{ "type": "Feature", "properties": { "_uid_": 319, "id": 318, "type": "Town outside greater Bamako", "source": "OSM", "label": "Moribila-Kagoua", "remarks": null }, "geometry": { "type": "Point", "coordinates": [ -5.0431951, 12.6633255 ] } },
{ "type": "Feature", "properties": { "_uid_": 320, "id": 319, "type": "Town outside greater Bamako", "source": "OSM", "label": "Moura", "remarks": "old name was Mourrari" }, "geometry": { "type": "Point", "coordinates": [ -4.5991851, 14.3294989 ] } },
{ "type": "Feature", "properties": { "_uid_": 321, "id": 320, "type": "Town outside greater Bamako", "source": "OSM", "label": "Mourdiah", "remarks": null }, "geometry": { "type": "Point", "coordinates": [ -7.471567, 14.4687043 ] } },
{ "type": "Feature", "properties": { "_uid_": 322, "id": 321, "type": "Town outside greater Bamako", "source": "OSM", "label": "N'Gara (in Dioïla, Dioïla)", "remarks": null }, "geometry": { "type": "Point", "coordinates": [ -6.8710867, 12.372875 ] } },
{ "type": "Feature", "properties": { "_uid_": 323, "id": 322, "type": "Town outside greater Bamako", "source": "OSM", "label": "N'Gara (in Ségou, Ségou)", "remarks": null }, "geometry": { "type": "Point", "coordinates": [ -6.5040355, 13.3100102 ] } },
{ "type": "Feature", "properties": { "_uid_": 324, "id": 323, "type": "Town outside greater Bamako", "source": "OSM", "label": "N'Gassola", "remarks": null }, "geometry": { "type": "Point", "coordinates": [ -6.2039917, 13.0802636 ] } },
{ "type": "Feature", "properties": { "_uid_": 325, "id": 324, "type": "Town outside greater Bamako", "source": "OSM", "label": "N'Goa", "remarks": null }, "geometry": { "type": "Point", "coordinates": [ -5.1416669, 13.246111 ] } },
{ "type": "Feature", "properties": { "_uid_": 326, "id": 325, "type": "Town outside greater Bamako", "source": "OSM", "label": "N'Golobougou (in Banco, Dioïla)", "remarks": null }, "geometry": { "type": "Point", "coordinates": [ -6.7152697, 12.1739461 ] } },
{ "type": "Feature", "properties": { "_uid_": 327, "id": 326, "type": "Town outside greater Bamako", "source": "OSM", "label": "N'Golonianaso", "remarks": null }, "geometry": { "type": "Point", "coordinates": [ -5.6830074, 12.4265094 ] } },
{ "type": "Feature", "properties": { "_uid_": 328, "id": 327, "type": "Town outside greater Bamako", "source": "OSM", "label": "N'Gorkou", "remarks": "old name was Ngorkou" }, "geometry": { "type": "Point", "coordinates": [ -3.7177201, 15.6584655 ] } },
{ "type": "Feature", "properties": { "_uid_": 329, "id": 328, "type": "Town outside greater Bamako", "source": "OSM", "label": "N'Gouma", "remarks": "old name was Ngouma" }, "geometry": { "type": "Point", "coordinates": [ -3.3706122, 15.6378894 ] } },
{ "type": "Feature", "properties": { "_uid_": 330, "id": 329, "type": "Town outside greater Bamako", "source": "OSM", "label": "N'Gouraba", "remarks": null }, "geometry": { "type": "Point", "coordinates": [ -7.4899292, 12.4255965 ] } },
{ "type": "Feature", "properties": { "_uid_": 331, "id": 330, "type": "Town outside greater Bamako", "source": "OSM", "label": "N'Goutjina", "remarks": null }, "geometry": { "type": "Point", "coordinates": [ -5.478611, 12.2969446 ] } },
{ "type": "Feature", "properties": { "_uid_": 332, "id": 331, "type": "Town outside greater Bamako", "source": "OSM", "label": "N'Kourala", "remarks": null }, "geometry": { "type": "Point", "coordinates": [ -6.1147973, 11.3596205 ] } },
{ "type": "Feature", "properties": { "_uid_": 333, "id": 332, "type": "Town outside greater Bamako", "source": "OSM", "label": "N'Tagonasso", "remarks": null }, "geometry": { "type": "Point", "coordinates": [ -5.1636109, 12.5997218 ] } },
{ "type": "Feature", "properties": { "_uid_": 334, "id": 333, "type": "Town outside greater Bamako", "source": "OSM", "label": "N'Tentou", "remarks": "old name was Ténintou" }, "geometry": { "type": "Point", "coordinates": [ -7.7226403, 11.3508541 ] } },
{ "type": "Feature", "properties": { "_uid_": 335, "id": 334, "type": "Town outside greater Bamako", "source": "OSM", "label": "N'Tillit", "remarks": "old name was I-n-Tillit" }, "geometry": { "type": "Point", "coordinates": [ -0.4769065, 15.5230991 ] } },
{ "type": "Feature", "properties": { "_uid_": 336, "id": 335, "type": "Town outside greater Bamako", "source": "OSM", "label": "N'Tjikouna", "remarks": null }, "geometry": { "type": "Point", "coordinates": [ -6.2386983, 11.1203755 ] } },
{ "type": "Feature", "properties": { "_uid_": 337, "id": 336, "type": "Town outside greater Bamako", "source": "OSM", "label": "N'Tjila", "remarks": null }, "geometry": { "type": "Point", "coordinates": [ -6.5065932, 11.5062723 ] } },
{ "type": "Feature", "properties": { "_uid_": 338, "id": 337, "type": "Town outside greater Bamako", "source": "OSM", "label": "N'Toba", "remarks": null }, "geometry": { "type": "Point", "coordinates": [ -5.2992627, 13.1712344 ] } },
{ "type": "Feature", "properties": { "_uid_": 339, "id": 338, "type": "Town outside greater Bamako", "source": "OSM", "label": "N'Torosso Bolokalasso", "remarks": null }, "geometry": { "type": "Point", "coordinates": [ -5.0541668, 13.1225005 ] } },
{ "type": "Feature", "properties": { "_uid_": 340, "id": 339, "type": "Town outside greater Bamako", "source": "OSM", "label": "N'Tossoni", "remarks": null }, "geometry": { "type": "Point", "coordinates": [ -5.7710498, 12.5264812 ] } },
{ "type": "Feature", "properties": { "_uid_": 341, "id": 340, "type": "Town outside greater Bamako", "source": "OSM", "label": "NTobougou", "remarks": null }, "geometry": { "type": "Point", "coordinates": [ -6.5933333, 12.3627777 ] } },
{ "type": "Feature", "properties": { "_uid_": 342, "id": 341, "type": "Town outside greater Bamako", "source": "OSM", "label": "Namala", "remarks": null }, "geometry": { "type": "Point", "coordinates": [ -9.3869735, 13.3645666 ] } },
{ "type": "Feature", "properties": { "_uid_": 343, "id": 342, "type": "Town outside greater Bamako", "source": "OSM", "label": "Nampala", "remarks": null }, "geometry": { "type": "Point", "coordinates": [ -5.5522953, 15.2785599 ] } },
{ "type": "Feature", "properties": { "_uid_": 344, "id": 343, "type": "Town outside greater Bamako", "source": "OSM", "label": "Nampasso", "remarks": null }, "geometry": { "type": "Point", "coordinates": [ -5.5035861, 13.0947061 ] } },
{ "type": "Feature", "properties": { "_uid_": 345, "id": 344, "type": "Town outside greater Bamako", "source": "OSM", "label": "Nangalasso", "remarks": null }, "geometry": { "type": "Point", "coordinates": [ -6.3179863, 10.8701213 ] } },
{ "type": "Feature", "properties": { "_uid_": 346, "id": 345, "type": "Town outside greater Bamako", "source": "OSM", "label": "Nangola", "remarks": null }, "geometry": { "type": "Point", "coordinates": [ -6.6063027, 12.6661236 ] } },
{ "type": "Feature", "properties": { "_uid_": 347, "id": 346, "type": "Town outside greater Bamako", "source": "OSM", "label": "Nara", "remarks": null }, "geometry": { "type": "Point", "coordinates": [ -7.2888666, 15.1712509 ] } },
{ "type": "Feature", "properties": { "_uid_": 348, "id": 347, "type": "Town outside greater Bamako", "source": "OSM", "label": "Natien", "remarks": null }, "geometry": { "type": "Point", "coordinates": [ -5.8329197, 11.3346782 ] } },
{ "type": "Feature", "properties": { "_uid_": 349, "id": 348, "type": "Town outside greater Bamako", "source": "OSM", "label": "Niagadina", "remarks": null }, "geometry": { "type": "Point", "coordinates": [ -8.2336579, 12.1315402 ] } },
{ "type": "Feature", "properties": { "_uid_": 350, "id": 349, "type": "Town outside greater Bamako", "source": "OSM", "label": "Niala", "remarks": null }, "geometry": { "type": "Point", "coordinates": [ -5.8573287, 12.942041 ] } },
{ "type": "Feature", "properties": { "_uid_": 351, "id": 350, "type": "Town outside greater Bamako", "source": "OSM", "label": "Niamana Sobala", "remarks": null }, "geometry": { "type": "Point", "coordinates": [ -5.2024999, 13.0375003 ] } },
{ "type": "Feature", "properties": { "_uid_": 352, "id": 351, "type": "Town outside greater Bamako", "source": "OSM", "label": "Nianaso", "remarks": null }, "geometry": { "type": "Point", "coordinates": [ -4.9783335, 12.7594442 ] } },
{ "type": "Feature", "properties": { "_uid_": 353, "id": 352, "type": "Town outside greater Bamako", "source": "OSM", "label": "Niantasso", "remarks": null }, "geometry": { "type": "Point", "coordinates": [ -10.1727803, 13.2778341 ] } },
{ "type": "Feature", "properties": { "_uid_": 354, "id": 353, "type": "Town outside greater Bamako", "source": "OSM", "label": "Niantjila", "remarks": null }, "geometry": { "type": "Point", "coordinates": [ -6.5770088, 11.7961101 ] } },
{ "type": "Feature", "properties": { "_uid_": 355, "id": 354, "type": "Town outside greater Bamako", "source": "OSM", "label": "Niasso", "remarks": null }, "geometry": { "type": "Point", "coordinates": [ -5.0405555, 13.2058335 ] } },
{ "type": "Feature", "properties": { "_uid_": 356, "id": 355, "type": "Town outside greater Bamako", "source": "OSM", "label": "Nimbougou", "remarks": null }, "geometry": { "type": "Point", "coordinates": [ -5.5042431, 10.8566511 ] } },
{ "type": "Feature", "properties": { "_uid_": 357, "id": 356, "type": "Town outside greater Bamako", "source": "OSM", "label": "Niono", "remarks": null }, "geometry": { "type": "Point", "coordinates": [ -5.9910481, 14.2534225 ] } },
{ "type": "Feature", "properties": { "_uid_": 358, "id": 357, "type": "Town outside greater Bamako", "source": "OSM", "label": "Niouma-Makana", "remarks": null }, "geometry": { "type": "Point", "coordinates": [ -8.8781138, 12.411803 ] } },
{ "type": "Feature", "properties": { "_uid_": 359, "id": 358, "type": "Town outside greater Bamako", "source": "OSM", "label": "Nongo-Souala", "remarks": null }, "geometry": { "type": "Point", "coordinates": [ -5.563993, 11.7562375 ] } },
{ "type": "Feature", "properties": { "_uid_": 360, "id": 359, "type": "Town outside greater Bamako", "source": "OSM", "label": "Nonkon", "remarks": null }, "geometry": { "type": "Point", "coordinates": [ -7.8584432, 13.2236947 ] } },
{ "type": "Feature", "properties": { "_uid_": 361, "id": 360, "type": "Town outside greater Bamako", "source": "OSM", "label": "Nonongo", "remarks": null }, "geometry": { "type": "Point", "coordinates": [ -5.5168769, 13.6999764 ] } },
{ "type": "Feature", "properties": { "_uid_": 362, "id": 361, "type": "Town outside greater Bamako", "source": "OSM", "label": "Nossombougou", "remarks": null }, "geometry": { "type": "Point", "coordinates": [ -7.9367852, 13.0950528 ] } },
{ "type": "Feature", "properties": { "_uid_": 363, "id": 362, "type": "Town outside greater Bamako", "source": "OSM", "label": "Nyamina", "remarks": "old name was Niamina" }, "geometry": { "type": "Point", "coordinates": [ -6.9820473, 13.3177923 ] } },
{ "type": "Feature", "properties": { "_uid_": 364, "id": 363, "type": "Town outside greater Bamako", "source": "OSM", "label": "Ossoubidiania", "remarks": null }, "geometry": { "type": "Point", "coordinates": [ -10.4619937, 14.2493976 ] } },
{ "type": "Feature", "properties": { "_uid_": 365, "id": 364, "type": "Town outside greater Bamako", "source": "OSM", "label": "Oualia", "remarks": null }, "geometry": { "type": "Point", "coordinates": [ -10.3774838, 13.5938529 ] } },
{ "type": "Feature", "properties": { "_uid_": 366, "id": 365, "type": "Town outside greater Bamako", "source": "OSM", "label": "Ouattagouna", "remarks": null }, "geometry": { "type": "Point", "coordinates": [ 0.7213021, 15.1816275 ] } },
{ "type": "Feature", "properties": { "_uid_": 367, "id": 366, "type": "Town outside greater Bamako", "source": "OSM", "label": "Oula", "remarks": null }, "geometry": { "type": "Point", "coordinates": [ -5.3397221, 12.5924997 ] } },
{ "type": "Feature", "properties": { "_uid_": 368, "id": 367, "type": "Town outside greater Bamako", "source": "OSM", "label": "Ouolodo", "remarks": null }, "geometry": { "type": "Point", "coordinates": [ -7.9315655, 13.201033 ] } },
{ "type": "Feature", "properties": { "_uid_": 369, "id": 368, "type": "Town outside greater Bamako", "source": "OSM", "label": "Ouolon", "remarks": null }, "geometry": { "type": "Point", "coordinates": [ -4.8615211, 13.5004989 ] } },
{ "type": "Feature", "properties": { "_uid_": 370, "id": 369, "type": "Town outside greater Bamako", "source": "OSM", "label": "Ouonkoro", "remarks": null }, "geometry": { "type": "Point", "coordinates": [ -3.8270831, 13.3847972 ] } },
{ "type": "Feature", "properties": { "_uid_": 371, "id": 370, "type": "Town outside greater Bamako", "source": "OSM", "label": "Uro Modi", "remarks": null }, "geometry": { "type": "Point", "coordinates": [ -4.5989973, 14.279649 ] } },
{ "type": "Feature", "properties": { "_uid_": 372, "id": 371, "type": "Town outside greater Bamako", "source": "OSM", "label": "Ouroumpana", "remarks": null }, "geometry": { "type": "Point", "coordinates": [ -7.155419, 10.8793112 ] } },
{ "type": "Feature", "properties": { "_uid_": 373, "id": 372, "type": "Town outside greater Bamako", "source": "OSM", "label": "Ouroun", "remarks": "old name was Ourou" }, "geometry": { "type": "Point", "coordinates": [ -7.9209943, 11.7006572 ] } },
{ "type": "Feature", "properties": { "_uid_": 374, "id": 373, "type": "Town outside greater Bamako", "source": "OSM", "label": "Pelengana", "remarks": null }, "geometry": { "type": "Point", "coordinates": [ -6.2165853, 13.4284548 ] } },
{ "type": "Feature", "properties": { "_uid_": 375, "id": 374, "type": "Town outside greater Bamako", "source": "OSM", "label": "Pimperna", "remarks": null }, "geometry": { "type": "Point", "coordinates": [ -5.7547222, 11.4305553 ] } },
{ "type": "Feature", "properties": { "_uid_": 376, "id": 375, "type": "Town outside greater Bamako", "source": "OSM", "label": "Pogo", "remarks": null }, "geometry": { "type": "Point", "coordinates": [ -5.9101689, 13.8987223 ] } },
{ "type": "Feature", "properties": { "_uid_": 377, "id": 376, "type": "Town outside greater Bamako", "source": "OSM", "label": "Razelma", "remarks": "old name was Raz el Ma" }, "geometry": { "type": "Point", "coordinates": [ -4.4596346, 16.5923828 ] } },
{ "type": "Feature", "properties": { "_uid_": 378, "id": 377, "type": "Town outside greater Bamako", "source": "OSM", "label": "Sadiola", "remarks": null }, "geometry": { "type": "Point", "coordinates": [ -11.7054385, 13.891613 ] } },
{ "type": "Feature", "properties": { "_uid_": 379, "id": 378, "type": "Town outside greater Bamako", "source": "OSM", "label": "Sagabala", "remarks": null }, "geometry": { "type": "Point", "coordinates": [ -8.1004728, 14.0849904 ] } },
{ "type": "Feature", "properties": { "_uid_": 380, "id": 379, "type": "Town outside greater Bamako", "source": "OSM", "label": "Sagabari", "remarks": null }, "geometry": { "type": "Point", "coordinates": [ -9.8038153, 12.5830417 ] } },
{ "type": "Feature", "properties": { "_uid_": 381, "id": 380, "type": "Town outside greater Bamako", "source": "OSM", "label": "Sagala", "remarks": null }, "geometry": { "type": "Point", "coordinates": [ -6.7275104, 14.1137358 ] } },
{ "type": "Feature", "properties": { "_uid_": 382, "id": 381, "type": "Town outside greater Bamako", "source": "OSM", "label": "Sah", "remarks": null }, "geometry": { "type": "Point", "coordinates": [ -4.0487253, 15.6244231 ] } },
{ "type": "Feature", "properties": { "_uid_": 383, "id": 382, "type": "Town outside greater Bamako", "source": "OSM", "label": "Salakoira", "remarks": "old name was Salakoyra" }, "geometry": { "type": "Point", "coordinates": [ -3.4592991, 16.0595421 ] } },
{ "type": "Feature", "properties": { "_uid_": 384, "id": 383, "type": "Town outside greater Bamako", "source": "OSM", "label": "Sama Foulala", "remarks": null }, "geometry": { "type": "Point", "coordinates": [ -6.5109016, 13.3821031 ] } },
{ "type": "Feature", "properties": { "_uid_": 385, "id": 384, "type": "Town outside greater Bamako", "source": "OSM", "label": "Samabogo", "remarks": null }, "geometry": { "type": "Point", "coordinates": [ -5.5000082, 12.8520765 ] } },
{ "type": "Feature", "properties": { "_uid_": 386, "id": 385, "type": "Town outside greater Bamako", "source": "OSM", "label": "Sampara", "remarks": null }, "geometry": { "type": "Point", "coordinates": [ -4.044126, 14.703252 ] } },
{ "type": "Feature", "properties": { "_uid_": 387, "id": 386, "type": "Town outside greater Bamako", "source": "OSM", "label": "Sanando", "remarks": null }, "geometry": { "type": "Point", "coordinates": [ -6.4086938, 12.9686078 ] } },
{ "type": "Feature", "properties": { "_uid_": 388, "id": 387, "type": "Town outside greater Bamako", "source": "OSM", "label": "Sanankoro Djitoumou", "remarks": null }, "geometry": { "type": "Point", "coordinates": [ -7.7054288, 12.0554836 ] } },
{ "type": "Feature", "properties": { "_uid_": 389, "id": 388, "type": "Town outside greater Bamako", "source": "OSM", "label": "Sandama", "remarks": "old name was Sandamba" }, "geometry": { "type": "Point", "coordinates": [ -8.7401808, 12.4353181 ] } },
{ "type": "Feature", "properties": { "_uid_": 390, "id": 389, "type": "Town outside greater Bamako", "source": "OSM", "label": "Sansanding", "remarks": null }, "geometry": { "type": "Point", "coordinates": [ -6.0037017, 13.7218782 ] } },
{ "type": "Feature", "properties": { "_uid_": 391, "id": 390, "type": "Town outside greater Bamako", "source": "OSM", "label": "Sanso", "remarks": null }, "geometry": { "type": "Point", "coordinates": [ -6.8569799, 11.7086401 ] } },
{ "type": "Feature", "properties": { "_uid_": 392, "id": 391, "type": "Town outside greater Bamako", "source": "OSM", "label": "Sanzana", "remarks": null }, "geometry": { "type": "Point", "coordinates": [ -5.9527779, 11.748333 ] } },
{ "type": "Feature", "properties": { "_uid_": 393, "id": 392, "type": "Town outside greater Bamako", "source": "OSM", "label": "Sarro", "remarks": null }, "geometry": { "type": "Point", "coordinates": [ -5.2390029, 13.7224824 ] } },
{ "type": "Feature", "properties": { "_uid_": 394, "id": 393, "type": "Town outside greater Bamako", "source": "OSM", "label": "Saye", "remarks": null }, "geometry": { "type": "Point", "coordinates": [ -4.9928342, 13.8289971 ] } },
{ "type": "Feature", "properties": { "_uid_": 395, "id": 394, "type": "Town outside greater Bamako", "source": "OSM", "label": "Sebekoro I", "remarks": null }, "geometry": { "type": "Point", "coordinates": [ -8.3795639, 13.6945679 ] } },
{ "type": "Feature", "properties": { "_uid_": 396, "id": 395, "type": "Town outside greater Bamako", "source": "OSM", "label": "Sébékoro", "remarks": null }, "geometry": { "type": "Point", "coordinates": [ -8.9904028, 12.9583786 ] } },
{ "type": "Feature", "properties": { "_uid_": 397, "id": 396, "type": "Town outside greater Bamako", "source": "OSM", "label": "Sebougou", "remarks": null }, "geometry": { "type": "Point", "coordinates": [ -6.2929274, 13.4252548 ] } },
{ "type": "Feature", "properties": { "_uid_": 398, "id": 397, "type": "Town outside greater Bamako", "source": "OSM", "label": "Ségala Ndi", "remarks": null }, "geometry": { "type": "Point", "coordinates": [ -10.9726565, 14.5629536 ] } },
{ "type": "Feature", "properties": { "_uid_": 399, "id": 398, "type": "Town outside greater Bamako", "source": "OSM", "label": "Séléfougou", "remarks": "old name was Téléfoungou" }, "geometry": { "type": "Point", "coordinates": [ -8.3384822, 11.7437173 ] } },
{ "type": "Feature", "properties": { "_uid_": 400, "id": 399, "type": "Town outside greater Bamako", "source": "OSM", "label": "Senko", "remarks": null }, "geometry": { "type": "Point", "coordinates": [ -9.3536992, 12.8103206 ] } },
{ "type": "Feature", "properties": { "_uid_": 401, "id": 400, "type": "Town outside greater Bamako", "source": "OSM", "label": "Sero", "remarks": null }, "geometry": { "type": "Point", "coordinates": [ -11.0621525, 14.8114306 ] } },
{ "type": "Feature", "properties": { "_uid_": 402, "id": 401, "type": "Town outside greater Bamako", "source": "OSM", "label": "Siarakorola", "remarks": null }, "geometry": { "type": "Point", "coordinates": [ -7.5745232, 13.2752905 ] } },
{ "type": "Feature", "properties": { "_uid_": 403, "id": 402, "type": "Town outside greater Bamako", "source": "OSM", "label": "Sibila", "remarks": null }, "geometry": { "type": "Point", "coordinates": [ -5.8773794, 13.7751606 ] } },
{ "type": "Feature", "properties": { "_uid_": 404, "id": 403, "type": "Town outside greater Bamako", "source": "OSM", "label": "Sido", "remarks": null }, "geometry": { "type": "Point", "coordinates": [ -7.599296, 11.6672876 ] } },
{ "type": "Feature", "properties": { "_uid_": 405, "id": 404, "type": "Town outside greater Bamako", "source": "OSM", "label": "Sincina", "remarks": null }, "geometry": { "type": "Point", "coordinates": [ -5.4341664, 12.3516665 ] } },
{ "type": "Feature", "properties": { "_uid_": 406, "id": 405, "type": "Town outside greater Bamako", "source": "OSM", "label": "Sinkolo", "remarks": null }, "geometry": { "type": "Point", "coordinates": [ -5.5500001, 12.0874996 ] } },
{ "type": "Feature", "properties": { "_uid_": 407, "id": 406, "type": "Town outside greater Bamako", "source": "OSM", "label": "Sirakoro (in Sirakoro, Kita)", "remarks": null }, "geometry": { "type": "Point", "coordinates": [ -9.2286245, 12.6835726 ] } },
{ "type": "Feature", "properties": { "_uid_": 408, "id": 407, "type": "Town outside greater Bamako", "source": "OSM", "label": "Sitakily", "remarks": null }, "geometry": { "type": "Point", "coordinates": [ -11.2252397, 13.1073836 ] } },
{ "type": "Feature", "properties": { "_uid_": 409, "id": 408, "type": "Town outside greater Bamako", "source": "OSM", "label": "Socoura", "remarks": "old name was Sokoura;Sokouna" }, "geometry": { "type": "Point", "coordinates": [ -4.0903538, 14.5380605 ] } },
{ "type": "Feature", "properties": { "_uid_": 410, "id": 409, "type": "Town outside greater Bamako", "source": "OSM", "label": "Soignebougou", "remarks": null }, "geometry": { "type": "Point", "coordinates": [ -6.3478688, 13.2116361 ] } },
{ "type": "Feature", "properties": { "_uid_": 411, "id": 410, "type": "Town outside greater Bamako", "source": "OSM", "label": "Sokolo", "remarks": null }, "geometry": { "type": "Point", "coordinates": [ -6.1209335, 14.7414252 ] } },
{ "type": "Feature", "properties": { "_uid_": 412, "id": 411, "type": "Town outside greater Bamako", "source": "OSM", "label": "Sokoura", "remarks": null }, "geometry": { "type": "Point", "coordinates": [ -3.7669995, 13.5077781 ] } },
{ "type": "Feature", "properties": { "_uid_": 413, "id": 412, "type": "Town outside greater Bamako", "source": "OSM", "label": "Soloba", "remarks": null }, "geometry": { "type": "Point", "coordinates": [ -8.4413605, 11.2262697 ] } },
{ "type": "Feature", "properties": { "_uid_": 414, "id": 413, "type": "Town outside greater Bamako", "source": "OSM", "label": "Somankidy", "remarks": null }, "geometry": { "type": "Point", "coordinates": [ -11.6077777, 14.5466671 ] } },
{ "type": "Feature", "properties": { "_uid_": 415, "id": 414, "type": "Town outside greater Bamako", "source": "OSM", "label": "Somasso", "remarks": null },